$GPGSA,A,3,04,07,,11,13,20,23,24,28,31,,,2.4,1.4,1.5*39
$GPGSV,3,1,10,04,43,280,47,07,56,350,50,08,03,188,32,11,09,060,31*71
$GPGSV,3,2,10,13,12,135,33,20,33,045,45,23,14,105,36,24,37,270,43*78
$GPGSV,3,3,10,28,65,196,48,31,62,029,50,,,,,,,,*7B
$GPRMC,083031,A,2446.5343,N,12103.6472,E,019.7,286.7,271204,003.2,W*69
$GPGGA,083031,2446.5343,N,12103.6472,E,1,09,1.4,106.9,M,16.4,M,,*49
$GPGSA,A,3,04,07,,11,13,20,23,24,28,31,,,2.4,1.4,1.5*39
$GPGSV,3,1,10,04,43,280,47,07,56,350,49,08,03,188,31,11,09,060,31*7A
$GPGSV,3,2,10,13,12,135,33,20,33,045,45,23,14,105,36,24,37,270,44*7F
$GPGSV,3,3,10,28,65,196,47,31,62,029,50,,,,,,,,*74
$GPRMC,083032,A,2446.5362,N,12103.6414,E,020.4,289.7,271204,003.2,W*6F
$PGRMT,GPS 25-LVS VER 2.50 ,P,P,R,R,P,,27,R*08
$GPGGA,083032,2446.5362,N,12103.6414,E,1,09,1.4,107.3,M,16.4,M,,*42
$GPGSA,A,3,04,07,,11,13,20,23,24,28,31,,,1.9,1.4,1.0*32
$GPGSV,3,1,10,04,43,280,46,07,56,350,49,08,03,188,31,11,09,060,31*7B
$GPGSV,3,2,10,13,12,135,35,20,33,045,45,23,14,105,36,24,37,270,44*79
$GPGSV,3,3,10,28,65,196,47,31,62,029,50,,,,,,,,*74
$GPRMC,083033,A,2446.5382,N,12103.6356,E,020.8,290.6,271204,003.2,W*64
$GPGGA,083033,2446.5382,N,12103.6356,E,1,09,1.3,107.6,M,16.4,M,,*4E
$GPGSA,A,3,04,07,,11,13,20,23,24,28,31,,,1.9,1.3,1.1*34
$GPGSV,3,1,10,04,43,280,45,07,56,350,48,08,03,188,31,11,09,060,30*78
$GPGSV,3,2,10,13,12,135,34,20,33,045,44,23,14,105,35,24,37,270,44*7A
$GPGSV,3,3,10,28,65,196,47,31,62,029,50,,,,,,,,*74
$GPRMC,083034,A,2446.5411,N,12103.6293,E,023.2,296.1,271204,003.2,W*6E
$GPGGA,083034,2446.5411,N,12103.6293,E,1,09,1.4,108.2,M,16.4,M,,*40
$GPGSA,A,3,04,07,,11,13,20,23,24,28,31,,,2.0,1.4,1.0*38
$GPGSV,3,1,10,04,43,280,45,07,56,350,48,08,03,188,31,11,09,060,30*78
$GPGSV,3,2,10,13,12,135,34,20,33,045,43,23,14,105,35,24,37,270,45*7C
$GPGSV,3,3,10,28,65,196,47,31,62,029,50,,,,,,,,*74
$GPRMC,083035,A,2446.5445,N,12103.6227,E,024.8,299.6,271204,003.2,W*64
$GPGGA,083035,2446.5445,N,12103.6227,E,1,09,1.5,108.7,M,16.4,M,,*4B
$GPGSA,A,3,04,07,,,13,20,23,24,28,31,,,1.9,1.5,1.0*33
$GPGSV,3,1,10,04,43,280,44,07,56,350,48,08,03,188,30,11,09,060,30*78
$GPGSV,3,2,10,13,12,135,33,20,33,045,42,23,14,105,36,24,37,270,45*79
$GPGSV,3,3,10,28,65,196,46,31,62,029,50,,,,,,,,*75
$GPRMC,083036,A,2446.5485,N,12103.6164,E,025.6,304.3,271204,003.2,W*60
$GPGGA,083036,2446.5485,N,12103.6164,E,1,08,1.5,108.3,M,16.4,M,,*45
$GPGSA,A,3,04,07,,,13,20,23,24,28,31,,,1.9,1.5,1.0*33
$GPGSV,3,1,10,04,43,280,44,07,56,350,48,08,03,188,30,11,09,060,30*78
$GPGSV,3,2,10,13,12,135,33,20,33,045,43,23,14,105,35,24,37,270,45*7B
$GPGSV,3,3,10,28,65,196,46,31,62,029,50,,,,,,,,*75
$GPRMC,083037,A,2446.5530,N,12103.6102,E,026.4,308.6,271204,003.2,W*66
$GPGGA,083037,2446.5530,N,12103.6102,E,1,08,1.5,108.0,M,16.4,M,,*48
$GPGSA,A,3,04,07,,,13,20,23,24,28,31,,,1.9,1.5,1.0*33
$GPGSV,3,1,10,04,43,280,44,07,56,350,48,08,03,188,30,11,09,060,30*78
$GPGSV,3,2,10,13,12,135,32,20,33,045,44,23,14,105,34,24,37,270,45*7C
$GPGSV,3,3,10,28,65,196,45,31,62,029,50,,,,,,,,*76
$GPRMC,083038,A,2446.5582,N,12103.6043,E,027.0,313.6,271204,003.2,W*6B
$GPGGA,083038,2446.5582,N,12103.6043,E,1,08,1.5,108.0,M,16.4,M,,*4A
$GPGSA,A,3,04,07,,11,13,20,23,24,28,31,,,2.0,1.5,1.2*3B
$GPGSV,3,1,10,04,43,280,45,07,56,350,47,08,03,188,30,11,09,060,35*73
$GPGSV,3,2,10,13,12,135,32,20,33,045,44,23,14,105,34,24,37,270,45*7C
$GPGSV,3,3,10,28,65,196,45,31,62,029,50,,,,,,,,*76
$GPRMC,083039,A,2446.5639,N,12103.5988,E,027.3,318.5,271204,003.2,W*6F
$GPGGA,083039,2446.5639,N,12103.5988,E,1,09,1.5,108.0,M,16.4,M,,*44
$GPGSA,A,3,04,07,,11,13,20,23,24,28,31,,,1.9,1.5,1.0*33
$GPGSV,3,1,10,04,43,280,46,07,56,350,46,08,03,188,30,11,09,060,36*72
$GPGSV,3,2,10,13,12,135,31,20,33,045,45,23,14,105,33,24,37,270,46*7A
$GPGSV,3,3,10,28,65,196,44,31,62,029,49,,,,,,,,*7F
$GPRMC,083040,A,2446.5701,N,12103.5937,E,027.7,322.1,271204,003.2,W*66
$GPGGA,083040,2446.5701,N,12103.5937,E,1,09,1.6,108.1,M,16.4,M,,*46
$GPGSA,A,3,04,07,,11,13,20,23,24,28,31,,,2.0,1.6,1.2*38
$GPGSV,3,1,10,04,43,280,47,07,56,350,45,08,03,188,30,11,09,060,35*73
$GPGSV,3,2,10,13,12,135,31,20,33,045,46,23,14,105,33,24,37,270,46*79
$GPGSV,3,3,10,28,65,196,44,31,62,029,49,,,,,,,,*7F
$GPRMC,083041,A,2446.5765,N,12103.5885,E,028.4,323.6,271204,003.2,W*67
$GPGGA,083041,2446.5765,N,12103.5885,E,1,09,1.6,108.8,M,16.4,M,,*44
$GPGSA,A,3,04,07,,11,13,20,23,24,28,31,,,2.0,1.6,1.2*38
$GPGSV,3,1,10,04,43,280,47,07,56,350,45,08,03,188,,11,09,060,34*71
$GPGSV,3,2,10,13,12,135,31,20,33,045,47,23,14,105,33,24,37,270,47*79
$GPGSV,3,3,10,28,65,196,44,31,62,029,48,,,,,,,,*7E
$GPRMC,083042,A,2446.5831,N,12103.5834,E,028.8,324.4,271204,003.2,W*69
$GPGGA,083042,2446.5831,N,12103.5834,E,1,09,1.6,109.4,M,16.4,M,,*4E
$GPGSA,A,3,04,07,,11,13,20,23,24,28,31,,,2.0,1.6,1.2*38
$GPGSV,3,1,10,04,43,280,47,07,56,350,45,08,03,188,,11,08,060,36*72
$GPGSV,3,2,10,13,12,135,31,20,33,045,47,23,14,105,33,24,37,270,47*79
$GPGSV,3,3,10,28,65,196,44,31,62,029,48,,,,,,,,*7E
$GPRMC,083043,A,2446.5898,N,12103.5784,E,029.2,325.3,271204,003.2,W*62
$GPGGA,083043,2446.5898,N,12103.5784,E,1,09,1.6,110.1,M,16.4,M,,*45
$GPGSA,A,3,04,07,,11,,20,23,24,28,31,,,2.0,1.6,1.2*3A
$GPGSV,3,1,10,04,43,280,47,07,56,350,44,08,03,188,,11,08,060,35*70
$GPGSV,3,2,10,13,12,135,31,20,33,045,47,23,14,105,33,24,37,270,48*76
$GPGSV,3,3,10,28,65,196,43,31,62,029,48,,,,,,,,*79
$GPRMC,083044,A,2446.5966,N,12103.5735,E,029.5,326.3,271204,003.2,W*61
$GPGGA,083044,2446.5966,N,12103.5735,E,1,08,1.6,110.2,M,16.4,M,,*4A
$GPGSA,A,3,04,07,,11,13,20,23,24,28,31,,,2.0,1.6,1.2*38
$GPGSV,3,1,10,04,43,280,47,07,56,350,44,08,03,188,,11,08,060,36*73
$GPGSV,3,2,10,13,12,135,31,20,33,045,47,23,14,105,33,24,37,270,48*76
$GPGSV,3,3,10,28,65,196,43,31,62,029,48,,,,,,,,*79
$GPRMC,083045,A,2446.6036,N,12103.5685,E,029.8,327.3,271204,003.2,W*63
$GPGGA,083045,2446.6036,N,12103.5685,E,1,09,1.6,111.1,M,16.4,M,,*4D
$GPGSA,A,3,04,07,,11,13,20,23,24,28,31,,,2.0,1.6,1.2*38
$GPGSV,3,1,10,04,43,280,46,07,56,350,44,08,03,188,,11,08,060,36*72
$GPGSV,3,2,10,13,12,135,31,20,33,045,47,23,14,105,34,24,37,270,48*71
$GPGSV,3,3,10,28,65,196,43,31,62,029,48,,,,,,,,*79
$GPRMC,083046,A,2446.6108,N,12103.5637,E,030.2,328.1,271204,003.2,W*6A
$GPGGA,083046,2446.6108,N,12103.5637,E,1,09,1.6,111.5,M,16.4,M,,*4F
$GPGSA,A,3,04,07,,11,13,20,23,24,28,31,,,2.0,1.6,1.2*38
$GPGSV,3,1,10,04,43,280,46,07,56,350,43,08,03,188,,11,08,060,36*75
$GPGSV,3,2,10,13,12,135,33,20,33,045,47,23,14,105,33,24,37,270,48*74
$GPGSV,3,3,10,28,65,196,44,31,62,029,48,,,,,,,,*7E
$GPRMC,083047,A,2446.6180,N,12103.5588,E,030.5,328.7,271204,003.2,W*6D
$GPGGA,083047,2446.6180,N,12103.5588,E,1,09,1.6,112.1,M,16.4,M,,*4E
$GPGSA,A,3,,04,07,,11,13,20,23,24,28,31,,2.0,1.6,1.2*38
$GPGSV,3,1,11,02,09,255,,04,43,280,46,07,56,350,43,08,03,188,*76
$GPGSV,3,2,11,11,08,060,36,13,12,135,34,20,33,045,47,23,14,105,35*74
$GPGSV,3,3,11,24,37,270,49,28,65,196,44,31,62,029,48,,,,*45
$GPRMC,083048,A,2446.6254,N,12103.5540,E,030.7,329.1,271204,003.2,W*69
$GPGGA,083048,2446.6254,N,12103.5540,E,1,09,1.3,112.6,M,16.4,M,,*4D
$GPGSA,A,3,,04,07,,11,13,20,23,24,28,31,,2.1,1.3,1.3*3D
$GPGSV,3,1,11,02,09,255,,04,43,280,46,07,56,350,43,08,03,188,*76
$GPGSV,3,2,11,11,08,060,37,13,12,135,35,20,33,045,47,23,14,105,36*77
$GPGSV,3,3,11,24,37,270,49,28,65,196,44,31,62,029,48,,,,*45
$GPRMC,083049,A,2446.6329,N,12103.5492,E,031.0,329.4,271204,003.2,W*6E
$GPGGA,083049,2446.6329,N,12103.5492,E,1,09,1.2,113.2,M,16.4,M,,*4D
$GPGSA,A,3,,04,07,,11,13,20,23,24,28,31,,2.1,1.2,1.4*3B
$GPGSV,3,1,11,02,09,255,,04,43,280,46,07,56,350,43,08,03,188,*76
$GPGSV,3,2,11,11,08,060,36,13,12,135,36,20,33,045,47,23,14,105,37*74
$GPGSV,3,3,11,24,37,270,49,28,65,196,44,31,62,029,48,,,,*45
$GPRMC,083050,A,2446.6405,N,12103.5444,E,031.2,329.7,271204,003.2,W*65
$GPGGA,083050,2446.6405,N,12103.5444,E,1,09,1.2,113.5,M,16.4,M,,*40
$GPGSA,A,3,,04,07,,11,13,20,23,24,28,31,,2.1,1.2,1.4*3B
$GPGSV,3,1,11,02,09,255,,04,43,280,46,07,56,350,43,08,03,188,*76
$GPGSV,3,2,11,11,08,060,37,13,12,134,36,20,33,045,47,23,14,105,37*74
$GPGSV,3,3,11,24,37,270,50,28,65,196,44,31,62,029,48,,,,*4D
$GPRMC,083051,A,2446.6481,N,12103.5397,E,031.3,330.1,271204,003.2,W*6E
$GPGGA,083051,2446.6481,N,12103.5397,E,1,09,1.3,113.6,M,16.4,M,,*46
$GPGSA,A,3,,04,07,,11,13,20,23,24,28,31,,2.3,1.3,1.6*3A
$GPGSV,3,1,11,02,09,255,,04,43,280,45,07,56,350,43,08,03,188,*75
$GPGSV,3,2,11,11,08,060,37,13,12,134,36,20,33,045,47,23,14,105,37*74
$GPGSV,3,3,11,24,37,270,50,28,65,196,44,31,62,029,47,,,,*42
$GPRMC,083052,A,2446.6558,N,12103.5349,E,031.4,330.2,271204,003.2,W*6F
$GPGGA,083052,2446.6558,N,12103.5349,E,1,09,1.3,113.6,M,16.4,M,,*43
$GPGSA,A,3,,04,07,,11,13,20,23,24,28,31,,2.4,1.3,1.8*33
$GPGSV,3,1,11,02,09,255,,04,43,280,45,07,56,350,44,08,03,188,*72
$GPGSV,3,2,11,11,08,060,38,13,12,134,36,20,33,045,48,23,14,105,38*7B
$GPGSV,3,3,11,24,37,270,49,28,65,196,44,31,62,029,47,,,,*4A
$GPRMC,083053,A,2446.6635,N,12103.5302,E,031.4,330.7,271204,003.2,W*6C
$GPGGA,083053,2446.6635,N,12103.5302,E,1,09,1.3,113.4,M,16.4,M,,*47
$GPGSA,A,3,,04,07,,11,13,20,23,24,28,31,,2.1,1.3,1.7*39
$GPGSV,3,1,11,02,09,255,,04,43,280,44,07,56,350,45,08,03,188,*72
$GPGSV,3,2,11,11,08,060,38,13,12,134,35,20,33,045,48,23,14,105,38*78
$GPGSV,3,3,11,24,37,270,49,28,65,196,44,31,62,029,47,,,,*4A
$GPRMC,083054,A,2446.6713,N,12103.5255,E,031.8,331.3,271204,003.2,W*64
$GPGGA,083054,2446.6713,N,12103.5255,E,1,09,1.3,112.9,M,16.4,M,,*4A
$GPGSA,A,3,,04,07,,11,13,20,23,24,28,31,,2.1,1.3,1.7*39
$GPGSV,3,1,11,02,09,255,,04,43,280,44,07,56,350,45,08,03,188,*72
$GPGSV,3,2,11,11,08,060,38,13,12,134,35,20,33,045,48,23,14,105,37*77
$GPGSV,3,3,11,24,37,270,49,28,65,196,44,31,62,029,47,,,,*4A
$GPRMC,083055,A,2446.6794,N,12103.5209,E,032.5,331.9,271204,003.2,W*67
$GPGGA,083055,2446.6794,N,12103.5209,E,1,09,1.2,112.4,M,16.4,M,,*41
$GPGSA,A,3,,04,07,,11,13,20,23,24,28,31,,2.2,1.2,1.7*3B
$GPGSV,3,1,11,02,09,255,,04,43,280,45,07,56,350,45,08,03,188,*73
$GPGSV,3,2,11,11,08,060,38,13,12,134,36,20,33,045,47,23,14,105,37*7B
$GPGSV,3,3,11,24,37,270,49,28,65,196,44,31,62,029,47,,,,*4A
$GPRMC,083056,A,2446.6877,N,12103.5162,E,033.3,332.6,271204,003.2,W*63
$GPGGA,083056,2446.6877,N,12103.5162,E,1,09,1.2,111.7,M,16.4,M,,*4E
$GPGSA,A,3,,04,07,,11,13,20,23,24,28,31,,2.1,1.2,1.7*38
$GPGSV,3,1,11,02,09,255,,04,43,280,45,07,56,350,46,08,03,188,*70
$GPGSV,3,2,11,11,08,060,38,13,12,134,35,20,33,045,47,23,14,105,37*78
$GPGSV,3,3,11,24,37,270,50,28,65,196,44,31,62,029,47,,,,*42
$GPRMC,083057,A,2446.6962,N,12103.5115,E,034.3,333.2,271204,003.2,W*65
$GPGGA,083057,2446.6962,N,12103.5115,E,1,09,1.3,111.3,M,16.4,M,,*4F
$GPGSA,A,3,,04,07,,11,13,20,23,24,28,31,,2.3,1.3,1.8*34
$GPGSV,3,1,11,02,09,255,,04,43,280,46,07,56,350,46,08,03,188,*73
$GPGSV,3,2,11,11,08,060,38,13,12,134,35,20,33,045,47,23,14,105,37*78
$GPGSV,3,3,11,24,37,270,50,28,65,196,44,31,62,029,47,,,,*42
$GPRMC,083058,A,2446.7051,N,12103.5068,E,035.3,333.9,271204,003.2,W*13
$GPGGA,083058,2446.7051,N,12103.5068,E,1,09,1.3,110.7,M,16.4,M,,*46
$GPGSA,A,3,,04,07,,11,13,20,23,24,28,31,,2.3,1.3,1.8*34
$GPGSV,3,1,11,02,09,255,,04,43,280,46,07,56,350,46,08,03,188,*73
$GPGSV,3,2,11,11,08,060,38,13,12,134,35,20,33,045,47,23,14,105,37*78
$GPGSV,3,3,11,24,37,270,50,28,65,196,45,31,62,029,47,,,,*43
$GPRMC,083059,A,2446.7142,N,12103.5020,E,036.1,334.5,271204,003.2,W*67
$GPGGA,083059,2446.7142,N,12103.5020,E,1,09,1.3,110.0,M,16.4,M,,*4F
$GPGSA,A,3,,04,07,,11,13,20,23,24,28,31,,2.3,1.3,1.8*34
$GPGSV,3,1,11,02,09,255,,04,43,280,46,07,56,350,47,08,03,188,*72
$GPGSV,3,2,11,11,08,060,39,13,12,134,34,20,33,045,46,23,14,105,37*79
$GPGSV,3,3,11,24,37,270,51,28,65,196,45,31,62,029,47,,,,*42
$GPRMC,083100,A,2446.7236,N,12103.4975,E,036.5,335.8,271204,003.2,W*6A
$GPGGA,083100,2446.7236,N,12103.4975,E,1,09,1.3,109.3,M,16.4,M,,*41
$GPGSA,A,3,,04,07,,11,13,20,23,24,28,31,,2.1,1.3,1.7*39
$GPGSV,3,1,11,02,09,255,,04,43,280,46,07,56,350,47,08,03,188,*72
$GPGSV,3,2,11,11,08,060,40,13,12,134,34,20,33,045,46,23,14,105,38*78
$GPGSV,3,3,11,24,37,270,51,28,65,196,45,31,62,029,47,,,,*42
$GPRMC,083101,A,2446.7329,N,12103.4930,E,036.5,336.5,271204,003.2,W*6B
$GPGGA,083101,2446.7329,N,12103.4930,E,1,09,1.3,108.6,M,16.4,M,,*4A
$GPGSA,A,3,,04,07,,11,13,20,23,24,28,31,,2.1,1.3,1.7*39
$GPGSV,3,1,11,02,09,255,,04,43,280,46,07,56,350,47,08,03,188,*72
$GPGSV,3,2,11,11,08,060,41,13,12,134,34,20,33,045,45,23,14,105,38*7A
$GPGSV,3,3,11,24,37,270,51,28,65,196,45,31,62,029,47,,,,*42
$GPRMC,083102,A,2446.7423,N,12103.4886,E,036.3,336.7,271204,003.2,W*6D
$GPGGA,083102,2446.7423,N,12103.4886,E,1,09,1.3,108.0,M,16.4,M,,*4E
$GPGSA,A,3,,04,07,,11,13,20,23,24,28,31,,2.1,1.3,1.7*39
$GPGSV,3,1,11,02,09,255,,04,43,280,46,07,56,350,47,08,03,188,*72
$GPGSV,3,2,11,11,08,060,42,13,12,134,34,20,33,045,45,23,14,105,38*79
$GPGSV,3,3,11,24,37,270,51,28,65,196,45,31,62,029,47,,,,*42
$GPRMC,083103,A,2446.7516,N,12103.4843,E,036.3,336.9,271204,003.2,W*6C
$GPGGA,083103,2446.7516,N,12103.4843,E,1,09,1.3,107.3,M,16.4,M,,*4D
$GPGSA,A,3,,04,07,,11,13,20,23,24,28,31,,2.1,1.3,1.7*39
$GPGSV,3,1,11,02,09,255,,04,43,280,46,07,56,350,47,08,03,188,*72
$GPGSV,3,2,11,11,08,060,42,13,12,134,33,20,33,045,45,23,14,105,38*7E
$GPGSV,3,3,11,24,37,270,51,28,65,196,45,31,62,029,47,,,,*42
$GPRMC,083104,A,2446.7610,N,12103.4801,E,036.3,337.7,271204,003.2,W*67
$GPGGA,083104,2446.7610,N,12103.4801,E,1,09,1.3,106.7,M,16.4,M,,*4C
$GPGSA,A,3,,04,07,,11,13,20,23,24,28,31,,2.1,1.3,1.7*39
$GPGSV,3,1,11,02,09,255,,04,43,280,46,07,56,350,48,08,03,188,*7D
$GPGSV,3,2,11,11,08,060,43,13,12,134,33,20,33,045,44,23,14,105,38*7E
$GPGSV,3,3,11,24,37,270,51,28,65,196,44,31,62,029,47,,,,*43
$GPRMC,083105,A,2446.7704,N,12103.4760,E,036.3,338.5,271204,003.2,W*67
$GPGGA,083105,2446.7704,N,12103.4760,E,1,09,1.3,106.0,M,16.4,M,,*46
$GPGSA,A,3,,04,07,,11,13,20,23,24,28,31,,2.1,1.3,1.7*39
$GPGSV,3,1,11,02,09,255,,04,43,280,46,07,56,350,48,08,03,188,*7D
$GPGSV,3,2,11,11,08,060,44,13,12,134,33,20,33,045,44,23,14,105,37*76
$GPGSV,3,3,11,24,37,270,50,28,65,196,44,31,62,029,48,,,,*4D
$GPRMC,083106,A,2446.7798,N,12103.4720,E,036.3,338.5,271204,003.2,W*65
$GPGGA,083106,2446.7798,N,12103.4720,E,1,09,1.3,105.4,M,16.4,M,,*43
$GPGSA,A,3,,04,07,,11,13,20,23,24,28,31,,2.1,1.3,1.7*39
$GPGSV,3,1,11,02,09,255,,04,43,280,46,07,56,350,48,08,03,188,*7D
$GPGSV,3,2,11,11,08,060,44,13,12,134,33,20,33,045,44,23,14,105,36*77
$GPGSV,3,3,11,24,37,270,50,28,65,196,44,31,62,029,47,,,,*42
$GPRMC,083107,A,2446.7895,N,12103.4678,E,037.0,338.3,271204,003.2,W*6E
$GPGGA,083107,2446.7895,N,12103.4678,E,1,09,1.3,104.7,M,16.4,M,,*4E
$GPGSA,A,3,,04,07,,11,13,20,23,24,28,31,,2.1,1.3,1.7*39
$GPGSV,3,1,11,02,09,255,,04,43,280,46,07,56,350,47,08,03,188,*72
$GPGSV,3,2,11,11,08,060,44,13,12,134,33,20,33,045,44,23,14,105,36*77
$GPGSV,3,3,11,24,37,270,50,28,65,196,44,31,62,029,47,,,,*42
$GPRMC,083108,A,2446.7993,N,12103.4635,E,038.2,338.0,271204,003.2,W*61
$GPGGA,083108,2446.7993,N,12103.4635,E,1,09,1.3,104.0,M,16.4,M,,*48
$GPGSA,A,3,,04,07,,11,13,20,23,24,28,31,,2.1,1.3,1.7*39
$GPGSV,3,1,11,02,09,255,,04,43,280,46,07,56,350,47,08,03,188,*72
$GPGSV,3,2,11,11,08,060,44,13,12,134,33,20,33,045,44,23,14,105,35*74
$GPGSV,3,3,11,24,37,270,50,28,65,196,44,31,62,029,47,,,,*42
$GPRMC,083109,A,2446.8093,N,12103.4590,E,038.8,337.7,271204,003.2,W*68
$GPGGA,083109,2446.8093,N,12103.4590,E,1,09,1.3,103.2,M,16.4,M,,*46
$GPGSA,A,3,,04,07,,11,13,20,23,24,28,31,,2.1,1.3,1.7*39
$GPGSV,3,1,11,02,09,255,,04,43,280,46,07,56,350,47,08,03,188,*72
$GPGSV,3,2,11,11,08,060,44,13,12,134,33,20,33,045,44,23,14,105,35*74
$GPGSV,3,3,11,24,37,270,50,28,65,196,44,31,62,029,47,,,,*42
$GPRMC,083110,A,2446.8192,N,12103.4546,E,038.4,337.9,271204,003.2,W*69
$GPGGA,083110,2446.8192,N,12103.4546,E,1,09,1.4,102.4,M,16.4,M,,*45
$GPGSA,A,3,,04,07,,11,13,20,23,24,28,31,,2.3,1.4,1.9*32
$GPGSV,3,1,11,02,09,255,,04,43,280,46,07,56,350,47,08,03,188,*72
$GPGSV,3,2,11,11,08,060,44,13,12,134,34,20,33,045,44,23,14,105,36*70
$GPGSV,3,3,11,24,37,270,50,28,65,196,44,31,62,029,48,,,,*4D
$GPRMC,083111,A,2446.8291,N,12103.4502,E,038.1,337.8,271204,003.2,W*2C
$GPGGA,083111,2446.8291,N,12103.4502,E,1,09,1.4,101.7,M,16.4,M,,*44
$GPGSA,A,3,,04,07,,11,13,20,23,24,28,31,,1.9,1.4,1.0*32
$GPGSV,3,1,11,02,09,255,,04,43,280,46,07,56,350,47,08,03,188,*72
$GPGSV,3,2,11,11,08,060,44,13,12,134,34,20,33,045,43,23,14,105,35*74
$GPGSV,3,3,11,24,37,270,50,28,65,196,44,31,62,029,48,,,,*4D
$GPRMC,083112,A,2446.8389,N,12103.4458,E,037.9,337.5,271204,003.2,W*63
$GPGGA,083112,2446.8389,N,12103.4458,E,1,09,1.4,100.9,M,16.4,M,,*4E
$GPGSA,A,3,,04,07,,11,13,20,23,24,28,31,,1.9,1.4,1.1*33
$GPGSV,3,1,11,02,09,255,,04,43,280,45,07,56,350,47,08,03,188,*71
$GPGSV,3,2,11,11,08,060,44,13,12,134,34,20,33,045,43,23,14,105,35*74
$GPGSV,3,3,11,24,37,270,50,28,65,196,44,31,62,029,48,,,,*4D
$GPRMC,083113,A,2446.8486,N,12103.4413,E,037.9,336.9,271204,003.2,W*68
$GPGGA,083113,2446.8486,N,12103.4413,E,1,09,1.5,100.3,M,16.4,M,,*43
$GPGSA,A,3,,04,07,,11,13,20,23,24,28,31,,2.1,1.5,1.3*3B
$GPGSV,3,1,11,02,09,255,,04,43,280,46,07,56,350,47,08,03,188,*72
$GPGSV,3,2,11,11,08,060,44,13,12,134,34,20,33,045,43,23,14,105,35*74
$GPGSV,3,3,11,24,37,270,50,28,65,196,44,31,62,029,48,,,,*4D
$GPRMC,083114,A,2446.8584,N,12103.4367,E,037.9,336.9,271204,003.2,W*68
$GPGGA,083114,2446.8584,N,12103.4367,E,1,09,1.5,99.6,M,16.4,M,,*77
$GPGSA,A,3,,04,07,,11,13,20,23,24,28,31,,2.1,1.5,1.3*3B
$GPGSV,3,1,11,02,09,255,,04,43,280,46,07,56,350,46,08,03,188,*73
$GPGSV,3,2,11,11,08,060,44,13,12,134,34,20,33,045,43,23,14,105,35*74
$GPGSV,3,3,11,24,37,270,50,28,65,196,44,31,62,029,48,,,,*4D
$GPRMC,083115,A,2446.8681,N,12103.4321,E,037.8,336.2,271204,003.2,W*67
$GPGGA,083115,2446.8681,N,12103.4321,E,1,09,1.5,99.0,M,16.4,M,,*74
$GPGSA,A,3,,04,07,,11,13,20,23,24,28,31,,2.1,1.5,1.3*3B
$GPGSV,3,1,11,02,09,255,,04,43,280,46,07,56,350,46,08,03,188,*73
$GPGSV,3,2,11,11,08,060,44,13,12,134,34,20,33,045,43,23,14,105,35*74
$GPGSV,3,3,11,24,37,270,50,28,65,196,44,31,62,029,48,,,,*4D
$GPRMC,083116,A,2446.8777,N,12103.4274,E,037.8,335.9,271204,003.2,W*65
$GPGGA,083116,2446.8777,N,12103.4274,E,1,09,1.5,98.2,M,16.4,M,,*7D
$GPGSA,A,3,,04,07,,11,13,20,23,24,28,31,,2.1,1.5,1.3*3B
$GPGSV,3,1,11,02,09,255,,04,43,280,46,07,56,350,46,08,03,188,*73
$GPGSV,3,2,11,11,08,060,43,13,12,134,33,20,33,045,43,23,14,105,34*75
$GPGSV,3,3,11,24,37,270,50,28,65,196,44,31,62,029,47,,,,*42
$GPRMC,083117,A,2446.8872,N,12103.4226,E,037.8,335.3,271204,003.2,W*63
$GPGGA,083117,2446.8872,N,12103.4226,E,1,09,1.5,97.6,M,16.4,M,,*7A
$GPGSA,A,3,,04,07,,11,13,20,23,24,28,31,,2.3,1.5,1.5*3F
$GPGSV,3,1,11,02,09,255,,04,43,280,46,07,56,350,46,08,03,188,*73
$GPGSV,3,2,11,11,08,060,43,13,12,134,33,20,33,045,43,23,14,105,34*75
$GPGSV,3,3,11,24,37,270,50,28,65,196,44,31,62,029,47,,,,*42
$GPRMC,083118,A,2446.8968,N,12103.4177,E,037.8,334.5,271204,003.2,W*66
$GPGGA,083118,2446.8968,N,12103.4177,E,1,09,1.5,96.8,M,16.4,M,,*77
$GPGSA,A,3,,04,07,,11,13,20,23,24,28,31,,2.3,1.5,1.5*3F
$GPGSV,3,1,11,02,09,255,,04,43,280,46,07,56,350,45,08,03,188,*70
$GPGSV,3,2,11,11,08,060,42,13,12,134,33,20,32,045,44,23,14,105,35*73
$GPGSV,3,3,11,24,37,270,50,28,65,196,44,31,62,029,47,,,,*42
$GPRMC,083119,A,2446.9062,N,12103.4126,E,037.7,334.0,271204,003.2,W*6B
$GPGGA,083119,2446.9062,N,12103.4126,E,1,09,1.6,96.2,M,16.4,M,,*79
$GPGSA,A,3,,04,07,,11,13,20,23,24,28,31,,2.0,1.6,1.0*3A
$GPGSV,3,1,11,02,09,255,,04,43,280,46,07,56,350,45,08,03,188,*70
$GPGSV,3,2,11,11,08,060,41,13,12,134,33,20,32,045,44,23,14,105,35*70
$GPGSV,3,3,11,24,37,270,50,28,65,196,44,31,62,029,47,,,,*42
$GPRMC,083120,A,2446.9156,N,12103.4076,E,037.7,333.8,271204,003.2,W*6C
$GPGGA,083120,2446.9156,N,12103.4076,E,1,09,1.6,95.8,M,16.4,M,,*78
$GPGSA,A,3,,04,07,,11,13,20,23,24,28,31,,2.2,1.6,1.2*3A
$GPGSV,3,1,11,02,09,255,,04,43,280,46,07,56,350,45,08,03,188,*70
$GPGSV,3,2,11,11,08,060,41,13,12,134,32,20,32,045,45,23,14,105,34*71
$GPGSV,3,3,11,24,37,270,50,28,65,196,44,31,62,029,47,,,,*42
$GPRMC,083121,A,2446.9250,N,12103.4025,E,037.6,333.5,271204,003.2,W*62
$GPGGA,083121,2446.9250,N,12103.4025,E,1,09,1.6,95.1,M,16.4,M,,*73
$GPGSA,A,3,,04,07,,11,13,20,23,24,28,31,,2.2,1.6,1.2*3A
$GPGSV,3,1,11,02,09,255,,04,43,280,46,07,56,350,45,08,03,188,*70
$GPGSV,3,2,11,11,08,060,40,13,12,134,32,20,32,045,45,23,14,105,35*71
$GPGSV,3,3,11,24,37,270,50,28,65,196,44,31,62,029,47,,,,*42
$GPRMC,083122,A,2446.9343,N,12103.3973,E,037.6,333.0,271204,003.2,W*6A
$GPGGA,083122,2446.9343,N,12103.3973,E,1,09,1.6,94.2,M,16.4,M,,*7C
$GPGSA,A,3,,04,07,,11,13,20,23,24,28,31,,2.2,1.6,1.2*3A
$GPGSV,3,1,11,02,09,255,,04,43,280,45,07,56,350,45,08,03,188,*73
$GPGSV,3,2,11,11,08,060,39,13,12,134,32,20,32,045,46,23,14,105,35*7C
$GPGSV,3,3,11,24,37,270,50,28,65,196,44,31,62,029,47,,,,*42
$GPRMC,083123,A,2446.9436,N,12103.3920,E,037.5,332.2,271204,003.2,W*68
$GPGGA,083123,2446.9436,N,12103.3920,E,1,09,1.6,93.7,M,16.4,M,,*7C
$GPGSA,A,3,,04,07,,11,13,20,23,24,28,31,,2.2,1.6,1.2*3A
$GPGSV,3,1,11,02,09,255,,04,43,280,45,07,56,350,45,08,03,188,*73
$GPGSV,3,2,11,11,08,060,38,13,12,134,32,20,32,045,46,23,14,105,35*7D
$GPGSV,3,3,11,24,37,270,50,28,65,196,44,31,62,029,47,,,,*42
$GPRMC,083124,A,2446.9527,N,12103.3864,E,037.6,331.3,271204,003.2,W*6E
$GPGGA,083124,2446.9527,N,12103.3864,E,1,09,1.6,93.3,M,16.4,M,,*7F
$GPGSA,A,3,,04,07,,11,13,20,23,24,28,31,,2.2,1.6,1.2*3A
$GPGSV,3,1,11,02,09,255,,04,43,280,45,07,56,350,45,08,03,188,*73
$GPGSV,3,2,11,11,08,060,38,13,12,134,33,20,32,045,47,23,14,105,35*7D
$GPGSV,3,3,11,24,37,270,50,28,65,196,44,31,62,029,47,,,,*42
$GPRMC,083125,A,2446.9618,N,12103.3808,E,037.5,330.5,271204,003.2,W*6E
$GPGGA,083125,2446.9618,N,12103.3808,E,1,09,1.6,92.9,M,16.4,M,,*70
$GPGSA,A,3,,04,07,,11,13,20,23,24,28,31,,2.2,1.6,1.2*3A
$GPGSV,3,1,11,02,09,255,,04,43,280,45,07,56,350,45,08,03,188,*73
$GPGSV,3,2,11,11,08,060,37,13,12,134,34,20,32,045,47,23,14,105,36*76
$GPGSV,3,3,11,24,37,270,49,28,65,196,44,31,62,029,47,,,,*4A
$GPRMC,083126,A,2446.9709,N,12103.3750,E,037.7,330.2,271204,003.2,W*6B
$GPGGA,083126,2446.9709,N,12103.3750,E,1,09,1.6,92.5,M,16.4,M,,*7C
$GPGSA,A,3,,04,07,,11,13,20,23,24,28,31,,2.2,1.6,1.2*3A
$GPGSV,3,1,11,02,09,255,,04,43,280,45,07,56,350,45,08,03,188,*73
$GPGSV,3,2,11,11,08,060,36,13,12,134,34,20,32,045,47,23,14,105,36*77
$GPGSV,3,3,11,24,37,270,49,28,65,196,44,31,62,029,47,,,,*4A
$GPRMC,083127,A,2446.9798,N,12103.3693,E,037.3,329.6,271204,003.2,W*64
$GPGGA,083127,2446.9798,N,12103.3693,E,1,09,1.7,91.8,M,16.4,M,,*74
$GPGSA,A,3,,04,07,,11,13,20,23,24,28,31,,2.4,1.7,1.5*3A
$GPGSV,3,1,11,02,09,255,,04,43,280,45,07,56,350,45,08,03,188,*73
$GPGSV,3,2,11,11,08,060,36,13,12,134,34,20,32,045,47,23,14,105,35*74
$GPGSV,3,3,11,24,37,270,49,28,65,196,44,31,62,029,47,,,,*4A
$GPRMC,083128,A,2446.9888,N,12103.3634,E,037.7,329.1,271204,003.2,W*6B
$GPGGA,083128,2446.9888,N,12103.3634,E,1,09,1.7,91.3,M,16.4,M,,*73
$GPGSA,A,3,,04,07,,11,13,20,23,24,28,31,,2.5,1.7,1.7*39
$GPGSV,3,1,11,02,09,255,,04,43,280,45,07,56,350,45,08,03,188,*73
$GPGSV,3,2,11,11,08,060,36,13,12,134,35,20,32,045,47,23,14,105,35*75
$GPGSV,3,3,11,24,37,270,49,28,65,196,44,31,62,029,48,,,,*45
$GPRMC,083129,A,2446.9978,N,12103.3573,E,037.9,328.5,271204,003.2,W*6F
$GPGGA,083129,2446.9978,N,12103.3573,E,1,09,1.7,91.0,M,16.4,M,,*7F
$GPGSA,A,3,,04,07,,11,13,20,23,24,28,31,,2.5,1.7,1.7*39
$GPGSV,3,1,11,02,09,255,,04,43,280,45,07,56,350,45,08,03,188,*73
$GPGSV,3,2,11,11,08,060,35,13,12,134,34,20,32,045,47,23,14,105,34*76
$GPGSV,3,3,11,24,37,270,48,28,65,196,44,31,62,029,48,,,,*44
$GPRMC,083130,A,2447.0069,N,12103.3510,E,038.4,327.5,271204,003.2,W*6E
$GPGGA,083130,2447.0069,N,12103.3510,E,1,09,1.7,90.6,M,16.4,M,,*74
$GPGSA,A,3,,04,07,,11,13,20,23,24,28,31,,2.5,1.7,1.7*39
$GPGSV,3,1,11,02,09,255,,04,43,280,46,07,56,350,45,08,03,188,*70
$GPGSV,3,2,11,11,08,060,35,13,12,134,34,20,32,045,47,23,14,104,35*76
$GPGSV,3,3,11,24,37,270,48,28,65,196,43,31,62,029,48,,,,*43
$GPRMC,083131,A,2447.0159,N,12103.3444,E,038.8,326.6,271204,003.2,W*63
$GPGGA,083131,2447.0159,N,12103.3444,E,1,09,1.7,90.1,M,16.4,M,,*70
$GPGSA,A,3,,04,07,,11,13,20,23,24,28,31,,2.5,1.7,1.7*39
$GPGSV,3,1,11,02,09,255,,04,43,280,46,07,56,350,45,08,03,188,*70
$GPGSV,3,2,11,11,08,060,35,13,12,134,34,20,32,045,48,23,14,104,35*79
$GPGSV,3,3,11,24,37,270,48,28,65,196,44,31,62,029,49,,,,*45
$GPRMC,083132,A,2447.0248,N,12103.3378,E,038.9,325.9,271204,003.2,W*66
$PGRMT,GPS 25-LVS VER 2.50 ,P,P,R,R,P,,27,R*08
$GPGGA,083132,2447.0248,N,12103.3378,E,1,09,1.7,89.6,M,16.4,M,,*77
$GPGSA,A,3,,04,07,,,13,20,23,24,28,31,,2.5,1.7,1.7*39
$GPGSV,3,1,11,02,09,255,,04,43,280,46,07,56,350,45,08,03,188,*70
$GPGSV,3,2,11,11,08,060,34,13,12,134,34,20,32,045,48,23,14,104,35*78
$GPGSV,3,3,11,24,37,270,47,28,65,196,43,31,62,029,49,,,,*4D
$GPRMC,083133,A,2447.0340,N,12103.3310,E,039.2,325.8,271204,003.2,W*6B
$GPGGA,083133,2447.0340,N,12103.3310,E,1,08,1.7,88.7,M,16.4,M,,*70
$GPGSA,A,3,,04,07,,11,13,20,23,24,28,31,,2.5,1.7,1.7*39
$GPGSV,3,1,11,02,09,255,,04,43,280,46,07,56,350,45,08,03,188,*70
$GPGSV,3,2,11,11,08,060,35,13,12,134,34,20,32,045,48,23,14,104,34*78
$GPGSV,3,3,11,24,37,270,47,28,65,196,43,31,62,029,49,,,,*4D
$GPRMC,083134,A,2447.0430,N,12103.3242,E,039.3,325.5,271204,003.2,W*66
$GPGGA,083134,2447.0430,N,12103.3242,E,1,09,1.7,88.3,M,16.4,M,,*74
$GPGSA,A,3,,04,07,,11,13,20,23,24,28,31,,2.5,1.7,1.7*39
$GPGSV,3,1,11,02,09,255,,04,43,280,46,07,56,350,45,08,03,188,*70
$GPGSV,3,2,11,11,08,060,34,13,12,134,34,20,32,045,48,23,14,104,34*79
$GPGSV,3,3,11,24,37,271,46,28,65,196,43,31,62,029,49,,,,*4D
$GPRMC,083135,A,2447.0520,N,12103.3173,E,039.2,325.2,271204,003.2,W*60
$GPGGA,083135,2447.0520,N,12103.3173,E,1,09,1.7,87.9,M,16.4,M,,*71
$GPGSA,A,3,,04,07,,11,13,20,23,24,28,31,,2.5,1.7,1.7*39
$GPGSV,3,1,11,02,09,255,,04,43,280,46,07,56,350,44,08,03,188,*71
$GPGSV,3,2,11,11,08,060,34,13,12,134,33,20,32,045,48,23,14,104,33*79
$GPGSV,3,3,11,24,37,271,46,28,65,196,43,31,62,029,49,,,,*4D
$GPRMC,083136,A,2447.0608,N,12103.3104,E,039.1,324.3,271204,003.2,W*69
$GPGGA,083136,2447.0608,N,12103.3104,E,1,09,1.7,87.5,M,16.4,M,,*77
$GPGSA,A,3,,04,07,,11,13,20,23,24,28,31,,2.5,1.7,1.7*39
$GPGSV,3,1,11,02,09,255,,04,43,280,47,07,56,350,44,08,03,188,*70
$GPGSV,3,2,11,11,08,060,34,13,12,134,33,20,32,045,48,23,14,104,33*79
$GPGSV,3,3,11,24,37,271,45,28,65,196,44,31,62,029,49,,,,*49
$GPRMC,083137,A,2447.0695,N,12103.3033,E,038.9,323.6,271204,003.2,W*62
$GPGGA,083137,2447.0695,N,12103.3033,E,1,09,1.7,87.1,M,16.4,M,,*73
$GPGSA,A,3,,04,07,,11,13,20,23,24,28,31,,1.8,1.7,1.0*30
$GPGSV,3,1,11,02,09,255,,04,43,280,46,07,56,350,44,08,03,188,*71
$GPGSV,3,2,11,11,08,060,33,13,12,134,33,20,32,045,29,23,14,104,33*79
$GPGSV,3,3,11,24,37,271,45,28,65,196,43,31,62,029,32,,,,*42
$GPRMC,083139,A,2447.0869,N,12103.2892,E,038.9,323.6,271204,003.2,W*63
$GPGGA,083139,2447.0869,N,12103.2892,E,6,09,1.7,86.4,M,16.4,M,,*71
$GPGSA,A,3,,04,07,,11,13,20,23,24,28,31,,1.8,1.7,1.0*30
$GPGSV,3,1,11,02,09,255,,04,43,280,45,07,56,350,43,08,03,188,*75
$GPGSV,3,2,11,11,08,060,33,13,12,134,32,20,32,045,29,23,14,104,32*79
$GPGSV,3,3,11,24,37,271,44,28,65,196,42,31,62,029,31,,,,*41
$GPRMC,083140,A,2447.0955,N,12103.2822,E,038.9,323.1,271204,003.2,W*6F
$GPGGA,083140,2447.0955,N,12103.2822,E,1,09,2.1,85.8,M,16.4,M,,*77
$GPGSA,A,3,,04,07,,11,13,20,23,24,28,31,,2.3,2.1,1.2*3F
$GPGSV,3,1,11,02,09,255,,04,43,280,46,07,56,350,44,08,03,188,*71
$GPGSV,3,2,11,11,08,060,33,13,12,134,32,20,32,045,32,23,14,104,32*73
$GPGSV,3,3,11,24,37,271,44,28,65,196,41,31,62,029,41,,,,*45
$GPRMC,083141,A,2447.1038,N,12103.2748,E,039.1,321.2,271204,003.2,W*66
$GPGGA,083141,2447.1038,N,12103.2748,E,1,09,2.4,85.4,M,16.4,M,,*7F
$GPGSA,A,3,,04,07,,11,13,20,23,24,28,31,,2.6,2.4,1.0*3D
$GPGSV,3,1,11,02,09,255,,04,43,280,47,07,56,350,45,08,03,188,*71
$GPGSV,3,2,11,11,08,060,32,13,12,134,32,20,32,045,34,23,14,104,32*74
$GPGSV,3,3,11,24,37,271,44,28,65,196,42,31,62,029,44,,,,*43
$GPRMC,083142,A,2447.1121,N,12103.2672,E,038.7,320.6,271204,003.2,W*66
$GPGGA,083142,2447.1121,N,12103.2672,E,1,09,1.8,85.6,M,16.4,M,,*70
$GPGSA,A,3,,04,07,,11,13,20,23,24,28,31,,1.8,1.8,1.0*3F
$GPGSV,3,1,11,02,09,255,,04,43,280,47,07,56,350,45,08,03,188,*71
$GPGSV,3,2,11,11,08,060,32,13,12,134,32,20,32,045,34,23,14,104,32*74
$GPGSV,3,3,11,24,37,271,45,28,65,196,43,31,62,029,46,,,,*41
$GPRMC,083143,A,2447.1202,N,12103.2597,E,038.5,320.0,271204,003.2,W*69
$GPGGA,083143,2447.1202,N,12103.2597,E,1,09,1.8,85.4,M,16.4,M,,*79
$GPGSA,A,3,,04,07,,,13,20,23,24,28,31,,1.8,1.8,1.0*3F
$GPGSV,3,1,11,02,09,255,,04,43,280,47,07,56,350,45,08,03,188,*71
$GPGSV,3,2,11,11,08,060,32,13,12,134,32,20,32,045,40,23,14,104,32*77
$GPGSV,3,3,11,24,37,271,45,28,65,196,43,31,62,029,47,,,,*40
$GPRMC,083144,A,2447.1285,N,12103.2521,E,038.4,319.6,271204,003.2,W*61
$GPGGA,083144,2447.1285,N,12103.2521,E,1,08,1.1,85.4,M,16.4,M,,*74
$GPGSA,A,3,,04,07,,11,13,20,,24,28,31,,1.9,1.1,1.1*37
$GPGSV,3,1,11,02,09,255,,04,43,280,48,07,56,350,46,08,03,188,*7D
$GPGSV,3,2,11,11,08,060,37,13,12,134,32,20,32,045,44,23,14,104,32*76
$GPGSV,3,3,11,24,37,271,45,28,65,196,43,31,62,029,48,,,,*4F
$GPRMC,083145,A,2447.1363,N,12103.2443,E,038.2,317.9,271204,003.2,W*6B
$GPGGA,083145,2447.1363,N,12103.2443,E,1,08,1.5,85.1,M,16.4,M,,*78
$GPGSA,A,3,,04,07,,11,13,20,,24,28,31,,2.3,1.5,1.3*38
$GPGSV,3,1,11,02,09,255,,04,43,280,48,07,56,350,46,08,03,188,*7D
$GPGSV,3,2,11,11,08,060,37,13,12,134,32,20,32,045,44,23,14,104,32*76
$GPGSV,3,3,11,24,37,271,45,28,65,196,43,31,62,029,48,,,,*4F
$GPRMC,083146,A,2447.1442,N,12103.2364,E,038.6,317.7,271204,003.2,W*64
$GPGGA,083146,2447.1442,N,12103.2364,E,1,08,1.5,85.0,M,16.4,M,,*7C
$GPGSA,A,3,,04,07,,11,13,20,,24,28,31,,2.3,1.5,1.4*3F
$GPGSV,3,1,11,02,09,255,,04,43,280,48,07,56,350,46,08,03,188,*7D
$GPGSV,3,2,11,11,08,060,38,13,12,134,32,20,32,045,45,23,14,104,32*78
$GPGSV,3,3,11,24,37,271,46,28,65,196,43,31,62,029,48,,,,*4C
$GPRMC,083147,A,2447.1522,N,12103.2284,E,038.5,317.4,271204,003.2,W*6D
$GPGGA,083147,2447.1522,N,12103.2284,E,1,08,1.5,84.9,M,16.4,M,,*7D
$GPGSA,A,3,,04,07,,11,13,20,23,24,28,31,,2.3,1.5,1.4*3E
$GPGSV,3,1,11,02,09,255,,04,44,281,48,07,56,350,46,08,03,188,*7B
$GPGSV,3,2,11,11,08,060,39,13,12,134,32,20,32,045,46,23,14,104,32*7A
$GPGSV,3,3,11,24,37,271,46,28,65,196,43,31,62,029,49,,,,*4D
$GPRMC,083148,A,2447.1599,N,12103.2203,E,038.7,316.7,271204,003.2,W*6D
$GPGGA,083148,2447.1599,N,12103.2203,E,1,09,1.5,84.8,M,16.4,M,,*7D
$GPGSA,A,3,,04,07,,11,13,20,23,24,28,31,,2.3,1.5,1.4*3E
$GPGSV,3,1,11,02,09,255,,04,44,281,48,07,56,350,46,08,03,188,*7B
$GPGSV,3,2,11,11,08,060,39,13,12,134,32,20,32,045,46,23,14,104,32*7A
$GPGSV,3,3,11,24,37,271,46,28,65,196,43,31,62,029,49,,,,*4D
$GPRMC,083149,A,2447.1677,N,12103.2121,E,038.9,316.0,271204,003.2,W*65
$GPGGA,083149,2447.1677,N,12103.2121,E,1,09,1.5,84.6,M,16.4,M,,*72
$GPGSA,A,3,,04,07,,11,13,20,23,24,28,31,,2.3,1.5,1.4*3E
$GPGSV,3,1,11,02,09,255,,04,44,281,48,07,56,350,46,08,03,188,*7B
$GPGSV,3,2,11,11,08,060,40,13,12,134,32,20,32,045,46,23,14,104,32*74
$GPGSV,3,3,11,24,37,271,47,28,65,196,44,31,62,029,50,,,,*43
$GPRMC,083150,A,2447.1755,N,12103.2037,E,039.5,315.7,271204,003.2,W*63
$GPGGA,083150,2447.1755,N,12103.2037,E,1,09,1.5,84.4,M,16.4,M,,*7F
$GPGSA,A,3,,04,07,,11,13,20,23,24,28,31,,2.3,1.5,1.4*3E
$GPGSV,3,1,11,02,09,255,,04,44,281,48,07,56,350,46,08,03,188,*7B
$GPGSV,3,2,11,11,08,060,41,13,12,134,32,20,32,045,46,23,14,104,32*75
$GPGSV,3,3,11,24,37,271,47,28,65,196,44,31,62,029,50,,,,*43
$GPRMC,083151,A,2447.1832,N,12103.1950,E,039.9,314.8,271204,003.2,W*65
$GPGGA,083151,2447.1832,N,12103.1950,E,1,09,1.5,84.3,M,16.4,M,,*7C
$GPGSA,A,3,,04,07,,11,13,20,23,24,28,31,,2.3,1.5,1.4*3E
$GPGSV,3,1,11,02,09,255,,04,44,281,47,07,56,350,47,08,03,188,*75
$GPGSV,3,2,11,11,08,060,41,13,12,134,32,20,32,045,46,23,14,104,32*75
$GPGSV,3,3,11,24,37,271,47,28,65,196,44,31,62,029,50,,,,*43
$GPRMC,083152,A,2447.1911,N,12103.1861,E,040.6,314.1,271204,003.2,W*6D
$GPGGA,083152,2447.1911,N,12103.1861,E,1,09,1.5,84.1,M,16.4,M,,*7E
$GPGSA,A,3,,04,07,,11,13,20,23,24,28,31,,2.3,1.5,1.4*3E
$GPGSV,3,1,11,02,09,255,,04,44,281,47,07,56,350,47,08,03,188,*75
$GPGSV,3,2,11,11,08,060,41,13,12,134,32,20,32,045,46,23,14,104,32*75
$GPGSV,3,3,11,24,37,271,47,28,64,195,44,31,62,029,51,,,,*40
$GPRMC,083153,A,2447.1988,N,12103.1771,E,040.8,313.5,271204,003.2,W*6F
$GPGGA,083153,2447.1988,N,12103.1771,E,1,09,1.5,84.1,M,16.4,M,,*71
$GPGSA,A,3,,04,07,,11,13,20,23,24,28,31,,2.3,1.5,1.4*3E
$GPGSV,3,1,11,02,09,255,,04,44,281,47,07,56,350,47,08,03,188,*75
$GPGSV,3,2,11,11,08,060,42,13,12,134,32,20,32,045,46,23,14,104,32*76
$GPGSV,3,3,11,24,37,271,47,28,64,195,44,31,62,029,51,,,,*40
$GPRMC,083154,A,2447.2066,N,12103.1680,E,041.1,313.1,271204,003.2,W*61
$GPGGA,083154,2447.2066,N,12103.1680,E,1,09,1.5,84.0,M,16.4,M,,*72
$GPGSA,A,3,,04,07,,11,,20,23,24,28,31,,2.3,1.5,1.4*3C
$GPGSV,3,1,11,02,09,255,,04,44,281,46,07,56,350,48,08,03,188,*7B
$GPGSV,3,2,11,11,08,060,42,13,12,134,31,20,32,045,46,23,14,104,32*75
$GPGSV,3,3,11,24,37,271,47,28,64,195,45,31,62,029,51,,,,*41
$GPRMC,083155,A,2447.2143,N,12103.1587,E,041.3,312.4,271204,003.2,W*64
$GPGGA,083155,2447.2143,N,12103.1587,E,1,08,1.5,84.0,M,16.4,M,,*70
$GPGSA,A,3,,04,07,,11,13,20,23,24,28,31,,2.3,1.5,1.4*3E
$GPGSV,3,1,11,02,09,255,,04,44,281,46,07,56,350,48,08,03,188,*7B
$GPGSV,3,2,11,11,08,060,41,13,12,134,32,20,32,045,45,23,14,104,32*76
$GPGSV,3,3,11,24,37,271,47,28,64,195,45,31,62,029,52,,,,*42
$GPRMC,083156,A,2447.2219,N,12103.1493,E,041.2,311.7,271204,003.2,W*6E
$GPGGA,083156,2447.2219,N,12103.1493,E,1,09,1.6,84.0,M,16.4,M,,*79
$GPGSA,A,3,,04,07,,11,13,20,23,24,28,31,,2.3,1.6,1.4*3D
$GPGSV,3,1,11,02,09,255,,04,44,281,46,07,56,350,48,08,03,188,*7B
$GPGSV,3,2,11,11,08,060,41,13,12,134,32,20,32,045,45,23,14,104,32*76
$GPGSV,3,3,11,24,37,271,46,28,64,195,45,31,62,029,52,,,,*43
$GPRMC,083157,A,2447.2295,N,12103.1398,E,041.1,311.1,271204,003.2,W*62
$GPGGA,083157,2447.2295,N,12103.1398,E,1,09,1.6,84.1,M,16.4,M,,*71
$GPGSA,A,3,,04,07,,11,13,20,,24,28,31,,2.3,1.6,1.4*3C
$GPGSV,3,1,11,02,09,255,,04,44,281,46,07,56,350,49,08,03,188,*7A
$GPGSV,3,2,11,11,08,060,41,13,12,134,33,20,32,045,45,23,14,104,31*74
$GPGSV,3,3,11,24,37,271,46,28,64,195,45,31,62,029,52,,,,*43
$GPRMC,083158,A,2447.2369,N,12103.1303,E,041.1,310.6,271204,003.2,W*6B
$GPGGA,083158,2447.2369,N,12103.1303,E,1,08,1.6,84.0,M,16.4,M,,*7E
$GPGSA,A,3,,04,07,,11,13,20,,24,28,31,,2.3,1.6,1.4*3C
$GPGSV,3,1,11,02,09,255,,04,44,281,46,07,56,350,49,08,03,188,*7A
$GPGSV,3,2,11,11,08,060,40,13,12,134,32,20,32,045,45,23,14,104,31*74
$GPGSV,3,3,11,24,37,271,46,28,64,195,45,31,62,029,52,,,,*43
$GPRMC,083159,A,2447.2442,N,12103.1207,E,041.0,310.1,271204,003.2,W*67
$GPGGA,083159,2447.2442,N,12103.1207,E,1,08,1.6,83.9,M,16.4,M,,*7A
$GPGSA,A,3,,04,07,,11,13,20,,24,28,31,,2.3,1.6,1.4*3C
$GPGSV,3,1,11,02,09,255,,04,44,281,45,07,56,350,49,08,03,188,*79
$GPGSV,3,2,11,11,08,060,40,13,12,134,32,20,32,045,44,23,14,104,31*75
$GPGSV,3,3,11,24,37,271,46,28,64,195,45,31,62,029,52,,,,*43
$GPRMC,083200,A,2447.2515,N,12103.1110,E,041.0,309.3,271204,003.2,W*64
$GPGGA,083200,2447.2515,N,12103.1110,E,1,08,1.6,83.9,M,16.4,M,,*73
$GPGSA,A,3,,04,07,,11,13,20,23,24,28,31,,2.3,1.6,1.4*3D
$GPGSV,3,1,11,02,09,255,,04,44,281,45,07,56,350,49,08,03,188,*79
$GPGSV,3,2,11,11,08,060,40,13,12,134,33,20,32,045,44,23,14,104,31*74
$GPGSV,3,3,11,24,37,271,45,28,64,195,45,31,62,029,52,,,,*40
$GPRMC,083201,A,2447.2587,N,12103.1012,E,040.9,308.5,271204,003.2,W*62
$GPGGA,083201,2447.2587,N,12103.1012,E,1,09,2.1,84.0,M,16.4,M,,*71
$GPGSA,A,3,,04,07,,11,13,20,23,24,28,31,,2.8,2.1,1.0*36
$GPGSV,3,1,11,02,09,255,,04,44,281,45,07,56,350,49,08,03,188,*79
$GPGSV,3,2,11,11,08,060,40,13,12,134,34,20,32,045,44,23,14,104,31*73
$GPGSV,3,3,11,24,37,271,44,28,64,195,44,31,62,029,52,,,,*40
$GPRMC,083202,A,2447.2655,N,12103.0914,E,040.3,307.2,271204,003.2,W*61
$GPGGA,083202,2447.2655,N,12103.0914,E,1,09,2.4,84.1,M,16.4,M,,*74
$GPGSA,A,3,,04,07,,11,13,20,23,24,28,31,,3.1,2.4,1.2*39
$GPGSV,3,1,11,02,09,255,,04,44,281,45,07,56,350,49,08,03,188,*79
$GPGSV,3,2,11,11,08,060,39,13,12,134,34,20,32,045,44,23,14,104,34*78
$GPGSV,3,3,11,24,37,271,44,28,64,195,45,31,62,029,52,,,,*41
$GPRMC,083203,A,2447.2723,N,12103.0815,E,040.2,306.9,271204,003.2,W*6B
$GPGGA,083203,2447.2723,N,12103.0815,E,1,09,1.6,84.1,M,16.4,M,,*74
$GPGSA,A,3,,04,07,,11,13,20,23,24,28,31,,2.4,1.6,1.3*3D
$GPGSV,3,1,11,02,09,255,,04,44,281,44,07,56,350,49,08,03,188,*78
$GPGSV,3,2,11,11,08,060,39,13,12,134,34,20,32,045,44,23,14,104,34*78
$GPGSV,3,3,11,24,37,271,44,28,64,195,45,31,62,029,52,,,,*41
$GPRMC,083204,A,2447.2790,N,12103.0716,E,040.2,306.4,271204,003.2,W*65
$GPGGA,083204,2447.2790,N,12103.0716,E,1,09,1.6,84.0,M,16.4,M,,*76
$GPGSA,A,3,,04,07,,11,13,20,23,24,28,31,,2.4,1.6,1.3*3D
$GPGSV,3,1,11,02,09,255,,04,44,281,44,07,56,350,49,08,03,188,*78
$GPGSV,3,2,11,11,08,060,39,13,12,134,34,20,32,045,45,23,14,104,34*79
$GPGSV,3,3,11,24,37,271,44,28,64,195,45,31,62,032,52,,,,*4B
$GPRMC,083205,A,2447.2855,N,12103.0617,E,040.0,305.9,271204,003.2,W*6E
$GPGGA,083205,2447.2855,N,12103.0617,E,1,09,1.6,83.9,M,16.4,M,,*7F
$GPGSA,A,3,,04,07,,11,13,20,23,24,28,31,,2.5,1.6,1.5*3A
$GPGSV,3,1,11,02,09,255,,04,44,281,43,07,56,350,49,08,03,188,*7F
$GPGSV,3,2,11,11,08,060,39,13,12,134,34,20,32,045,44,23,14,104,34*78
$GPGSV,3,3,11,24,37,271,44,28,64,195,45,31,62,032,52,,,,*4B
$GPRMC,083206,A,2447.2919,N,12103.0518,E,039.5,305.2,271204,003.2,W*68
$GPGGA,083206,2447.2919,N,12103.0518,E,1,09,1.6,83.7,M,16.4,M,,*77
$GPGSA,A,3,,04,07,,11,13,20,23,24,28,31,,2.5,1.6,1.5*3A
$GPGSV,3,1,11,02,09,255,,04,44,281,43,07,56,350,48,08,03,188,*7E
$GPGSV,3,2,11,11,08,060,38,13,12,134,34,20,32,045,44,23,14,104,33*7E
$GPGSV,3,3,11,24,37,271,45,28,64,195,45,31,62,032,52,,,,*4A
$GPRMC,083207,A,2447.2981,N,12103.0420,E,039.0,304.4,271204,003.2,W*60
$GPGGA,083207,2447.2981,N,12103.0420,E,1,09,1.6,83.5,M,16.4,M,,*7F
$GPGSA,A,3,,04,07,,11,13,20,23,24,28,31,,2.4,1.6,1.5*3B
$GPGSV,3,1,11,02,09,255,,04,44,281,43,07,56,350,48,08,03,188,*7E
$GPGSV,3,2,11,11,08,060,38,13,12,134,33,20,32,045,44,23,14,104,33*79
$GPGSV,3,3,11,24,37,271,45,28,64,195,45,31,62,032,52,,,,*4A
$GPRMC,083208,A,2447.3040,N,12103.0322,E,038.5,303.7,271204,003.2,W*6F
$GPGGA,083208,2447.3040,N,12103.0322,E,1,09,1.6,83.1,M,16.4,M,,*74
$GPGSA,A,3,,04,07,,11,13,20,23,24,28,31,,2.5,1.6,1.7*38
$GPGSV,3,1,11,02,09,255,,04,44,281,42,07,56,350,48,08,03,188,*7F
$GPGSV,3,2,11,11,08,060,37,13,12,134,33,20,32,045,43,23,14,104,33*71
$GPGSV,3,3,11,24,37,271,45,28,64,195,45,31,62,032,52,,,,*4A
$GPRMC,083209,A,2447.3099,N,12103.0224,E,038.1,303.3,271204,003.2,W*6D
$GPGGA,083209,2447.3099,N,12103.0224,E,1,09,1.6,83.0,M,16.4,M,,*77
$GPGSA,A,3,,04,07,,11,13,20,23,24,28,31,,2.5,1.6,1.7*38
$GPGSV,3,1,11,02,09,255,,04,44,281,43,07,56,350,48,08,03,188,*7E
$GPGSV,3,2,11,11,08,060,36,13,12,134,33,20,32,045,43,23,14,104,33*70
$GPGSV,3,3,11,24,37,271,45,28,64,195,46,31,62,032,52,,,,*49
$GPRMC,083210,A,2447.3158,N,12103.0127,E,037.7,302.9,271204,003.2,W*6B
$GPGGA,083210,2447.3158,N,12103.0127,E,1,09,1.6,82.7,M,16.4,M,,*75
$GPGSA,A,3,,04,07,,11,13,20,23,24,28,31,,2.5,1.6,1.7*38
$GPGSV,3,1,11,02,09,255,,04,44,281,43,07,56,350,48,08,03,188,*7E
$GPGSV,3,2,11,11,08,060,35,13,12,134,33,20,32,045,43,23,14,104,32*72
$GPGSV,3,3,11,24,37,271,45,28,64,195,46,31,62,032,52,,,,*49
$GPRMC,083211,A,2447.3213,N,12103.0030,E,037.7,302.1,271204,003.2,W*69
$GPGGA,083211,2447.3213,N,12103.0030,E,1,09,1.6,82.1,M,16.4,M,,*79
$GPGSA,A,3,,04,07,,11,13,20,23,24,28,31,,2.5,1.6,1.7*38
$GPGSV,3,1,11,02,09,255,,04,44,281,43,07,56,350,48,08,03,188,*7E
$GPGSV,3,2,11,11,08,060,35,13,12,134,33,20,32,045,43,23,14,104,32*72
$GPGSV,3,3,11,24,37,271,46,28,64,195,46,31,62,032,52,,,,*4A
$GPRMC,083212,A,2447.3267,N,12102.9931,E,037.9,301.2,271204,003.2,W*67
$GPGGA,083212,2447.3267,N,12102.9931,E,1,09,1.6,81.9,M,16.4,M,,*72
$GPGSA,A,3,,04,07,,11,13,20,23,24,28,31,,2.5,1.6,1.7*38
$GPGSV,3,1,11,02,09,255,,04,44,281,44,07,56,350,48,08,03,188,*79
$GPGSV,3,2,11,11,08,060,34,13,12,134,32,20,32,045,43,23,14,104,33*73
$GPGSV,3,3,11,24,37,271,45,28,64,195,46,31,62,032,51,,,,*4A
$GPRMC,083213,A,2447.3321,N,12102.9831,E,038.0,300.7,271204,003.2,W*66
$GPGGA,083213,2447.3321,N,12102.9831,E,1,09,1.3,81.6,M,16.4,M,,*7B
$GPGSA,A,3,,04,07,,11,13,20,23,24,28,31,,2.4,1.3,1.7*3C
$GPGSV,3,1,11,02,09,255,,04,44,281,44,07,56,350,48,08,03,188,*79
$GPGSV,3,2,11,11,08,060,34,13,12,134,32,20,32,045,43,23,14,104,34*74
$GPGSV,3,3,11,24,37,271,45,28,64,195,46,31,62,032,51,,,,*4A
$GPRMC,083214,A,2447.3374,N,12102.9730,E,038.2,300.2,271204,003.2,W*68
$GPGGA,083214,2447.3374,N,12102.9730,E,1,09,1.4,81.3,M,16.4,M,,*70
$GPGSA,A,3,,04,07,,11,,20,23,24,28,31,,2.6,1.4,1.9*35
$GPGSV,3,1,11,02,09,255,,04,44,281,44,07,56,350,48,08,03,188,*79
$GPGSV,3,2,11,11,08,060,34,13,12,134,32,20,32,045,43,23,14,104,35*75
$GPGSV,3,3,11,24,37,271,45,28,64,195,46,31,62,032,51,,,,*4A
$GPRMC,083215,A,2447.3428,N,12102.9627,E,038.7,299.7,271204,003.2,W*61
$GPGGA,083215,2447.3428,N,12102.9627,E,1,08,1.4,81.0,M,16.4,M,,*7A
$GPGSA,A,3,,04,07,,11,,20,23,24,28,31,,2.6,1.4,1.9*35
$GPGSV,3,1,11,02,09,255,,04,44,281,45,07,56,350,48,08,03,188,*78
$GPGSV,3,2,11,11,08,060,33,13,12,134,32,20,32,045,43,23,14,104,35*72
$GPGSV,3,3,11,24,37,271,44,28,64,195,46,31,62,032,51,,,,*4B
$GPRMC,083216,A,2447.3481,N,12102.9522,E,039.3,299.1,271204,003.2,W*64
$GPGGA,083216,2447.3481,N,12102.9522,E,1,08,1.4,80.6,M,16.4,M,,*7B
$GPGSA,A,3,,04,07,,11,,20,23,24,28,31,,2.7,1.4,2.0*3E
$GPGSV,3,1,11,02,09,256,,04,44,281,45,07,56,350,47,08,03,188,*74
$GPGSV,3,2,11,11,08,060,33,13,12,134,32,20,32,045,42,23,14,104,36*70
$GPGSV,3,3,11,24,37,271,43,28,64,195,47,31,62,032,51,,,,*4D
$GPRMC,083217,A,2447.3534,N,12102.9415,E,040.0,298.7,271204,003.2,W*65
$GPGGA,083217,2447.3534,N,12102.9415,E,1,08,1.3,80.3,M,16.4,M,,*72
$GPGSA,A,3,,04,07,,11,,20,23,24,28,31,,2.4,1.3,2.0*3A
$GPGSV,3,1,11,02,09,256,,04,44,281,45,07,56,350,47,08,03,188,*74
$GPGSV,3,2,11,11,08,060,33,13,12,134,32,20,32,045,42,23,14,104,36*70
$GPGSV,3,3,11,24,37,271,43,28,64,195,47,31,62,032,51,,,,*4D
$GPRMC,083218,A,2447.3587,N,12102.9306,E,040.4,298.1,271204,003.2,W*65
$GPGGA,083218,2447.3587,N,12102.9306,E,1,08,1.6,80.1,M,16.4,M,,*77
$GPGSA,A,3,,04,07,,11,,20,23,24,28,31,,2.9,1.6,2.4*36
$GPGSV,3,1,11,02,09,256,,04,44,281,45,07,56,350,47,08,03,188,*74
$GPGSV,3,2,11,11,08,060,33,13,12,134,32,20,32,045,42,23,14,104,36*70
$GPGSV,3,3,11,24,37,271,42,28,64,195,46,31,62,032,51,,,,*4D
$GPRMC,083219,A,2447.3638,N,12102.9196,E,040.3,297.2,271204,003.2,W*63
$GPGGA,083219,2447.3638,N,12102.9196,E,1,08,1.8,79.9,M,16.4,M,,*7A
$GPGSA,A,3,,04,07,,11,,20,23,24,28,31,,3.0,1.8,1.0*37
$GPGSV,3,1,11,02,09,256,,04,44,281,45,07,56,350,47,08,03,188,*74
$GPGSV,3,2,11,11,08,060,33,13,12,134,32,20,32,045,43,23,14,104,36*71
$GPGSV,3,3,11,24,37,271,42,28,64,195,46,31,62,032,51,,,,*4D
$GPRMC,083220,A,2447.3688,N,12102.9086,E,040.2,296.6,271204,003.2,W*66
$GPGGA,083220,2447.3688,N,12102.9086,E,1,08,1.3,79.8,M,16.4,M,,*71
$GPGSA,A,3,,04,07,,,,20,23,24,28,31,,2.4,1.3,1.1*38
$GPGSV,3,1,11,02,09,256,,04,44,281,45,07,56,350,47,08,03,188,*74
$GPGSV,3,2,11,11,08,060,32,13,12,134,32,20,32,045,43,23,14,104,36*70
$GPGSV,3,3,11,24,37,271,42,28,64,195,46,31,62,032,51,,,,*4D
$GPRMC,083221,A,2447.3738,N,12102.8977,E,039.8,296.6,271204,003.2,W*6F
$GPGGA,083221,2447.3738,N,12102.8977,E,1,07,1.4,79.7,M,16.4,M,,*7B
$GPGSA,A,3,,04,07,,,,20,23,24,28,31,,2.6,1.4,1.3*3F
$GPGSV,3,1,11,02,09,256,,04,44,281,45,07,56,350,47,08,03,188,*74
$GPGSV,3,2,11,11,08,060,32,13,12,134,32,20,32,045,43,23,14,104,36*70
$GPGSV,3,3,11,24,37,271,42,28,64,195,46,31,62,032,51,,,,*4D
$GPRMC,083222,A,2447.3786,N,12102.8870,E,039.4,296.5,271204,003.2,W*60
$GPGGA,083222,2447.3786,N,12102.8870,E,1,07,1.3,79.7,M,16.4,M,,*7C
$GPGSA,A,3,,04,07,,,,20,23,24,28,31,,2.4,1.3,1.4*3D
$GPGSV,3,1,11,02,09,256,,04,44,281,45,07,56,350,48,08,03,188,*7B
$GPGSV,3,2,11,11,08,060,32,13,12,134,31,20,32,045,42,23,14,104,36*72
$GPGSV,3,3,11,24,37,271,43,28,64,195,46,31,62,032,51,,,,*4C
$GPRMC,083223,A,2447.3834,N,12102.8763,E,038.9,295.9,271204,003.2,W*69
$GPGGA,083223,2447.3834,N,12102.8763,E,1,07,1.3,79.6,M,16.4,M,,*77
$GPGSA,A,3,,04,07,,,,20,23,24,28,31,,2.4,1.3,1.4*3D
$GPGSV,3,1,11,02,09,256,,04,44,281,45,07,56,350,48,08,03,188,*7B
$GPGSV,3,2,11,11,08,060,32,13,12,134,31,20,32,045,43,23,14,104,36*73
$GPGSV,3,3,11,24,37,271,43,28,64,195,46,31,62,032,51,,,,*4C
$GPRMC,083224,A,2447.3880,N,12102.8657,E,038.5,295.7,271204,003.2,W*65
$GPGGA,083224,2447.3880,N,12102.8657,E,1,07,1.3,79.5,M,16.4,M,,*7A
$GPGSA,A,3,,04,07,08,,,20,23,24,28,31,,2.4,1.3,1.4*35
$GPGSV,3,1,11,02,09,256,,04,44,281,45,07,56,350,48,08,03,188,36*7E
$GPGSV,3,2,11,11,08,060,32,13,12,134,31,20,32,045,43,23,14,104,36*73
$GPGSV,3,3,11,24,37,271,43,28,64,195,46,31,62,032,51,,,,*4C
$GPRMC,083225,A,2447.3926,N,12102.8552,E,038.3,295.9,271204,003.2,W*67
$GPGGA,083225,2447.3926,N,12102.8552,E,1,08,1.4,79.5,M,16.4,M,,*78
$GPGSA,A,3,,04,07,08,,,20,23,24,28,31,,2.6,1.4,1.6*32
$GPGSV,3,1,11,02,09,256,,04,44,281,45,07,56,350,48,08,03,188,35*7D
$GPGSV,3,2,11,11,08,060,32,13,12,134,31,20,32,045,43,23,14,104,36*73
$GPGSV,3,3,11,24,37,271,43,28,64,195,46,31,62,032,51,,,,*4C
$GPRMC,083226,A,2447.3973,N,12102.8446,E,038.5,296.0,271204,003.2,W*6C
$GPGGA,083226,2447.3973,N,12102.8446,E,1,08,1.3,79.4,M,16.4,M,,*79
$GPGSA,A,3,,04,07,08,,,20,23,24,28,31,,2.4,1.3,1.6*37
$GPGSV,3,1,11,02,09,256,,04,44,281,45,07,56,350,48,08,03,188,35*7D
$GPGSV,3,2,11,11,08,060,32,13,12,134,31,20,32,045,43,23,14,104,37*72
$GPGSV,3,3,11,24,37,271,44,28,64,195,46,31,62,032,51,,,,*4B
$GPRMC,083227,A,2447.4020,N,12102.8339,E,038.9,295.9,271204,003.2,W*6C
$GPGGA,083227,2447.4020,N,12102.8339,E,1,08,1.3,79.5,M,16.4,M,,*7E
$GPGSA,A,3,,04,07,08,11,,20,23,24,28,31,,2.4,1.3,1.6*37
$GPGSV,3,1,11,02,09,256,,04,44,281,45,07,56,350,48,08,03,188,34*7C
$GPGSV,3,2,11,11,08,060,31,13,12,134,31,20,32,045,43,23,14,104,37*71
$GPGSV,3,3,11,24,37,271,44,28,64,195,46,31,62,032,51,,,,*4B
$GPRMC,083228,A,2447.4068,N,12102.8231,E,039.2,295.8,271204,003.2,W*6D
$GPGGA,083228,2447.4068,N,12102.8231,E,1,09,1.3,79.4,M,16.4,M,,*74
$GPGSA,A,3,,04,07,08,11,,20,23,24,28,31,,2.4,1.3,1.6*37
$GPGSV,3,1,11,02,09,256,,04,44,281,45,07,56,350,48,08,03,188,36*7E
$GPGSV,3,2,11,11,08,060,31,13,12,134,31,20,32,045,44,23,14,104,36*77
$GPGSV,3,3,11,24,37,271,44,28,64,195,45,31,62,032,51,,,,*48
$GPRMC,083229,A,2447.4115,N,12102.8123,E,039.4,295.7,271204,003.2,W*6E
$GPGGA,083229,2447.4115,N,12102.8123,E,1,09,1.2,79.2,M,16.4,M,,*79
$GPGSA,A,3,,04,07,08,11,,20,23,24,28,31,,2.1,1.2,1.6*33
$GPGSV,3,1,11,02,09,256,,04,44,281,45,07,56,350,48,08,03,188,37*7F
$GPGSV,3,2,11,11,08,060,31,13,12,134,31,20,32,045,44,23,14,104,36*77
$GPGSV,3,3,11,24,37,271,44,28,64,195,45,31,62,032,51,,,,*48
$GPRMC,083230,A,2447.4163,N,12102.8014,E,039.6,295.6,271204,003.2,W*61
$GPGGA,083230,2447.4163,N,12102.8014,E,1,09,1.2,78.8,M,16.4,M,,*7E
$GPGSA,A,3,,04,07,08,11,,20,23,24,28,31,,2.1,1.2,1.6*33
$GPGSV,3,1,11,02,09,256,,04,44,281,45,07,56,350,48,08,03,188,37*7F
$GPGSV,3,2,11,11,08,060,32,13,12,134,31,20,32,045,44,23,14,104,36*74
$GPGSV,3,3,11,24,37,271,44,28,64,195,45,31,62,032,51,,,,*48
$GPRMC,083231,A,2447.4210,N,12102.7904,E,039.7,295.6,271204,003.2,W*61
$GPGGA,083231,2447.4210,N,12102.7904,E,1,09,1.2,78.7,M,16.4,M,,*70
$GPGSA,A,3,,04,07,08,11,,20,23,24,28,31,,2.1,1.2,1.7*32
$GPGSV,3,1,11,02,09,256,,04,44,281,45,07,56,350,48,08,03,188,37*7F
$GPGSV,3,2,11,11,08,060,31,13,12,134,31,20,32,045,44,23,14,104,36*77
$GPGSV,3,3,11,24,37,271,44,28,64,195,45,31,62,032,51,,,,*48
$GPRMC,083232,A,2447.4258,N,12102.7794,E,039.8,295.7,271204,003.2,W*67
$GPGGA,083232,2447.4258,N,12102.7794,E,1,09,1.3,78.5,M,16.4,M,,*7B
$GPGSA,A,3,,04,07,08,11,,20,23,24,28,31,,2.3,1.3,1.8*3E
$GPGSV,3,1,11,02,09,256,,04,44,281,45,07,56,350,48,08,03,188,36*7E
$GPGSV,3,2,11,11,08,060,31,13,12,134,31,20,32,045,44,23,14,104,36*77
$GPGSV,3,3,11,24,37,271,44,28,64,195,45,31,62,032,51,,,,*48
$GPRMC,083233,A,2447.4306,N,12102.7685,E,040.0,295.8,271204,003.2,W*64
$PGRMT,GPS 25-LVS VER 2.50 ,P,P,R,R,P,,27,R*08
$GPGGA,083233,2447.4306,N,12102.7685,E,1,09,1.3,78.5,M,16.4,M,,*71
$GPGSA,A,3,,04,07,08,11,,20,23,24,28,31,,2.3,1.3,1.8*3E
$GPGSV,3,1,11,02,09,256,,04,44,281,45,07,56,350,48,08,03,188,36*7E
$GPGSV,3,2,11,11,08,060,31,13,12,134,31,20,32,045,44,23,14,104,36*77
$GPGSV,3,3,11,24,37,271,44,28,64,195,45,31,62,032,51,,,,*48
$GPRMC,083234,A,2447.4355,N,12102.7574,E,040.1,295.8,271204,003.2,W*69
$GPGGA,083234,2447.4355,N,12102.7574,E,1,09,1.3,78.5,M,16.4,M,,*7D
$GPGSA,A,3,,04,07,08,11,,20,23,24,28,31,,2.4,1.3,2.0*32
$GPGSV,3,1,11,02,09,256,,04,44,281,45,07,56,350,48,08,03,188,35*7D
$GPGSV,3,2,11,11,08,060,31,13,12,134,31,20,32,045,44,23,14,104,35*74
$GPGSV,3,3,11,24,37,271,44,28,64,195,46,31,62,032,51,,,,*4B
$GPRMC,083235,A,2447.4404,N,12102.7464,E,040.3,295.8,271204,003.2,W*69
$GPGGA,083235,2447.4404,N,12102.7464,E,1,09,1.4,78.5,M,16.4,M,,*78
$GPGSA,A,3,,04,07,08,11,,20,23,24,28,31,,2.6,1.4,2.1*36
$GPGSV,3,1,11,02,09,256,,04,44,281,45,07,56,350,48,08,03,188,35*7D
$GPGSV,3,2,11,11,08,060,31,13,12,134,31,20,32,045,44,23,14,104,36*77
$GPGSV,3,3,11,24,37,271,44,28,64,195,46,31,62,032,51,,,,*4B
$GPRMC,083236,A,2447.4452,N,12102.7353,E,040.2,295.8,271204,003.2,W*6B
$GPGGA,083236,2447.4452,N,12102.7353,E,1,09,1.4,78.5,M,16.4,M,,*7B
$GPGSA,A,3,,04,07,08,11,,20,23,24,28,31,,2.6,1.4,2.1*36
$GPGSV,3,1,11,02,09,256,,04,44,281,45,07,56,350,48,08,03,188,35*7D
$GPGSV,3,2,11,11,08,060,31,13,12,134,31,20,32,045,44,23,14,104,36*77
$GPGSV,3,3,11,24,37,271,45,28,64,195,46,31,62,032,51,,,,*4A
$GPRMC,083237,A,2447.4501,N,12102.7242,E,040.2,295.8,271204,003.2,W*6C
$GPGGA,083237,2447.4501,N,12102.7242,E,1,09,1.4,78.5,M,16.4,M,,*7C
$GPGSA,A,3,,04,07,08,11,,20,23,24,28,31,,2.7,1.4,2.2*34
$GPGSV,3,1,11,02,09,256,,04,44,281,45,07,57,351,48,08,03,188,34*7C
$GPGSV,3,2,11,11,08,060,31,13,12,134,31,20,32,045,44,23,14,104,36*77
$GPGSV,3,3,11,24,37,271,45,28,64,195,46,31,62,032,51,,,,*4A
$GPRMC,083238,A,2447.4550,N,12102.7132,E,040.3,295.8,271204,003.2,W*62
$GPGGA,083238,2447.4550,N,12102.7132,E,1,09,1.4,78.4,M,16.4,M,,*72
$GPGSA,A,3,,04,07,08,11,,20,23,24,28,31,,2.7,1.4,2.2*34
$GPGSV,3,1,11,02,09,256,,04,44,281,45,07,57,351,48,08,03,188,34*7C
$GPGSV,3,2,11,11,08,060,31,13,12,134,31,20,32,045,44,23,14,104,36*77
$GPGSV,3,3,11,24,37,271,45,28,64,195,46,31,62,032,51,,,,*4A
$GPRMC,083239,A,2447.4598,N,12102.7021,E,040.2,295.6,271204,003.2,W*6B
$GPGGA,083239,2447.4598,N,12102.7021,E,1,09,1.4,78.3,M,16.4,M,,*73
$GPGSA,A,3,,04,07,08,11,,20,23,24,28,31,,2.7,1.4,2.2*34
$GPGSV,3,1,11,02,09,256,,04,44,281,45,07,57,351,48,08,03,188,34*7C
$GPGSV,3,2,11,11,08,060,31,13,12,134,31,20,32,045,44,23,14,104,36*77
$GPGSV,3,3,11,24,37,271,45,28,64,195,46,31,62,032,51,,,,*4A
$GPRMC,083240,A,2447.4647,N,12102.6911,E,040.2,295.8,271204,003.2,W*61
$GPGGA,083240,2447.4647,N,12102.6911,E,1,09,1.3,78.2,M,16.4,M,,*71
$GPGSA,A,3,,04,07,08,,,20,23,24,28,31,,2.4,1.3,2.1*33
$GPGSV,3,1,11,02,09,256,,04,44,281,45,07,57,351,48,08,03,188,34*7C
$GPGSV,3,2,11,11,08,060,31,13,12,134,31,20,32,045,44,23,14,104,36*77
$GPGSV,3,3,11,24,37,271,44,28,64,195,46,31,62,032,51,,,,*4B
$GPRMC,083241,A,2447.4696,N,12102.6800,E,040.4,295.9,271204,003.2,W*6A
$GPGGA,083241,2447.4696,N,12102.6800,E,1,08,1.4,78.1,M,16.4,M,,*78
$GPGSA,A,3,,04,07,08,,,20,23,24,28,31,,2.6,1.4,2.2*35
$GPGSV,3,1,11,02,09,256,,04,44,281,45,07,57,351,48,08,03,187,34*73
$GPGSV,3,2,11,11,08,060,31,13,12,134,31,20,32,045,44,23,14,104,36*77
$GPGSV,3,3,11,24,37,271,44,28,64,195,45,31,62,032,51,,,,*48
$GPRMC,083242,A,2447.4745,N,12102.6688,E,040.6,295.9,271204,003.2,W*6A
$GPGGA,083242,2447.4745,N,12102.6688,E,1,08,1.4,78.0,M,16.4,M,,*7B
$GPGSA,A,3,,04,07,08,,,20,23,24,28,31,,2.6,1.4,2.2*35
$GPGSV,3,1,11,02,09,256,,04,44,281,45,07,57,351,48,08,03,187,34*73
$GPGSV,3,2,11,11,08,060,31,13,12,134,31,20,32,045,44,23,14,104,36*77
$GPGSV,3,3,11,24,37,271,44,28,64,195,46,31,62,032,51,,,,*4B
$GPRMC,083243,A,2447.4795,N,12102.6576,E,040.8,295.9,271204,003.2,W*6A
$GPGGA,083243,2447.4795,N,12102.6576,E,1,08,1.3,77.9,M,16.4,M,,*74
$GPGSA,A,3,,04,07,08,,,20,23,24,28,31,,2.4,1.3,2.1*33
$GPGSV,3,1,11,02,09,256,,04,44,281,44,07,57,351,48,08,03,187,33*75
$GPGSV,3,2,11,11,08,060,31,13,12,134,31,20,32,045,44,23,14,104,35*74
$GPGSV,3,3,11,24,37,271,44,28,64,195,46,31,62,032,51,,,,*4B
$GPRMC,083244,A,2447.4845,N,12102.6463,E,041.1,295.7,271204,003.2,W*6C
$GPGGA,083244,2447.4845,N,12102.6463,E,1,08,1.3,77.8,M,16.4,M,,*75
$GPGSA,A,3,,04,07,08,,,20,23,24,28,31,,2.4,1.3,2.1*33
$GPGSV,3,1,11,02,09,256,,04,44,281,44,07,57,351,48,08,03,187,33*75
$GPGSV,3,2,11,11,08,060,31,13,12,134,31,20,32,045,44,23,14,104,35*74
$GPGSV,3,3,11,24,37,271,44,28,64,195,46,31,62,032,51,,,,*4B
$GPRMC,083245,A,2447.4895,N,12102.6349,E,041.3,295.8,271204,003.2,W*62
$GPGGA,083245,2447.4895,N,12102.6349,E,1,08,1.3,77.7,M,16.4,M,,*79
$GPGSA,A,3,,04,07,08,,,20,23,24,28,31,,2.4,1.3,2.1*33
$GPGSV,3,1,11,02,09,256,,04,44,281,44,07,57,351,48,08,03,187,34*72
$GPGSV,3,2,11,11,08,060,31,13,12,134,31,20,32,045,44,23,14,104,36*77
$GPGSV,3,3,11,24,37,271,44,28,64,195,46,31,62,032,51,,,,*4B
$GPRMC,083246,A,2447.4945,N,12102.6235,E,041.6,296.0,271204,003.2,W*69
$GPGGA,083246,2447.4945,N,12102.6235,E,1,08,1.2,77.5,M,16.4,M,,*7F
$GPGSA,A,3,,04,07,08,,,20,23,24,28,31,,2.1,1.2,1.7*32
$GPGSV,3,1,11,02,09,256,,04,44,281,45,07,57,351,48,08,03,187,34*73
$GPGSV,3,2,11,11,08,060,31,13,12,134,31,20,32,045,44,23,14,104,36*77
$GPGSV,3,3,11,24,37,271,44,28,64,195,46,31,62,032,51,,,,*4B
$GPRMC,083247,A,2447.4996,N,12102.6120,E,041.9,295.9,271204,003.2,W*64
$GPGGA,083247,2447.4996,N,12102.6120,E,1,08,1.2,77.3,M,16.4,M,,*71
$GPGSA,A,3,,04,07,08,,,20,23,24,28,31,,2.1,1.2,1.7*32
$GPGSV,3,1,11,02,09,256,,04,44,281,45,07,57,351,48,08,03,187,34*73
$GPGSV,3,2,11,11,08,060,31,13,12,134,31,20,32,045,44,23,14,104,35*74
$GPGSV,3,3,11,24,37,271,44,28,64,195,46,31,62,032,51,,,,*4B
$GPRMC,083248,A,2447.5048,N,12102.6004,E,042.1,296.0,271204,003.2,W*66
$GPGGA,083248,2447.5048,N,12102.6004,E,1,08,1.2,77.0,M,16.4,M,,*71
$GPGSA,A,3,,04,07,08,11,,20,23,24,28,31,,2.1,1.2,1.8*3D
$GPGSV,3,1,11,02,09,256,,04,44,281,45,07,57,351,48,08,03,187,34*73
$GPGSV,3,2,11,11,08,060,31,13,12,134,31,20,32,045,44,23,14,104,35*74
$GPGSV,3,3,11,24,37,271,44,28,64,195,46,31,62,032,51,,,,*4B
$GPRMC,083249,A,2447.5100,N,12102.5889,E,042.3,296.1,271204,003.2,W*67
$GPGGA,083249,2447.5100,N,12102.5889,E,1,09,1.2,76.6,M,16.4,M,,*75
$GPGSA,A,3,,04,07,08,11,,20,23,24,28,31,,2.1,1.2,1.8*3D
$GPGSV,3,1,11,02,09,256,,04,44,281,45,07,57,351,48,08,03,187,35*72
$GPGSV,3,2,11,11,08,060,31,13,12,134,31,20,32,045,44,23,14,104,35*74
$GPGSV,3,3,11,24,37,271,44,28,64,195,46,31,62,032,51,,,,*4B
$GPRMC,083250,A,2447.5152,N,12102.5773,E,042.2,296.0,271204,003.2,W*62
$GPGGA,083250,2447.5152,N,12102.5773,E,1,09,1.2,76.5,M,16.4,M,,*73
$GPGSA,A,3,,04,07,08,11,,20,23,24,28,31,,2.1,1.2,1.7*32
$GPGSV,3,1,11,02,09,256,,04,44,281,45,07,57,351,48,08,03,187,35*72
$GPGSV,3,2,11,11,08,060,31,13,12,134,31,20,32,045,44,23,14,104,35*74
$GPGSV,3,3,11,24,37,271,44,28,64,195,46,31,62,032,51,,,,*4B
$GPRMC,083251,A,2447.5203,N,12102.5657,E,042.2,295.8,271204,003.2,W*68
$GPGGA,083251,2447.5203,N,12102.5657,E,1,09,1.2,76.2,M,16.4,M,,*75
$GPGSA,A,3,,04,07,08,11,,20,23,24,28,31,,2.1,1.2,1.7*32
$GPGSV,3,1,11,02,09,256,,04,44,281,45,07,57,351,48,08,03,187,36*71
$GPGSV,3,2,11,11,08,060,31,13,12,134,31,20,32,045,44,23,14,104,36*77
$GPGSV,3,3,11,24,37,271,44,28,64,195,46,31,62,032,51,,,,*4B
$GPRMC,083252,A,2447.5254,N,12102.5540,E,042.5,295.7,271204,003.2,W*64
$GPGGA,083252,2447.5254,N,12102.5540,E,1,09,1.8,75.9,M,16.4,M,,*73
$GPGSA,A,3,,04,07,08,11,,20,23,24,28,31,,2.7,1.8,1.0*39
$GPGSV,3,1,11,02,09,256,,04,44,281,45,07,57,351,48,08,03,187,35*72
$GPGSV,3,2,11,11,08,060,31,13,12,134,31,20,32,045,44,23,14,104,36*77
$GPGSV,3,3,11,24,37,271,44,28,64,195,46,31,62,032,51,,,,*4B
$GPRMC,083253,A,2447.5305,N,12102.5425,E,041.9,295.9,271204,003.2,W*63
$GPGGA,083253,2447.5305,N,12102.5425,E,1,09,1.8,75.7,M,16.4,M,,*7B
$GPGSA,A,3,,04,07,08,11,,20,23,24,28,31,,2.8,1.8,1.2*34
$GPGSV,3,1,11,02,09,256,,04,44,281,45,07,57,351,48,08,03,187,36*71
$GPGSV,3,2,11,11,08,061,31,13,12,134,31,20,32,045,43,23,14,104,36*71
$GPGSV,3,3,11,24,37,271,44,28,64,195,46,31,62,032,51,,,,*4B
$GPRMC,083254,A,2447.5355,N,12102.5310,E,041.5,295.7,271204,003.2,W*62
$GPGGA,083254,2447.5355,N,12102.5310,E,1,09,1.2,75.5,M,16.4,M,,*70
$GPGSA,A,3,,04,07,08,11,,20,23,24,28,31,,2.1,1.2,1.3*36
$GPGSV,3,1,11,02,09,256,,04,44,281,45,07,57,351,48,08,03,187,36*71
$GPGSV,3,2,11,11,08,061,31,13,12,134,31,20,32,045,43,23,14,104,36*71
$GPGSV,3,3,11,24,37,271,44,28,64,195,45,31,62,032,51,,,,*48
$GPRMC,083255,A,2447.5405,N,12102.5197,E,041.3,295.7,271204,003.2,W*6A
$GPGGA,083255,2447.5405,N,12102.5197,E,1,09,1.2,75.3,M,16.4,M,,*78
$GPGSA,A,3,,04,07,08,11,,20,23,24,28,31,,2.1,1.2,1.3*36
$GPGSV,3,1,11,02,09,256,,04,44,281,45,07,57,351,48,08,03,187,36*71
$GPGSV,3,2,11,11,08,061,32,13,12,134,31,20,32,045,43,23,14,104,36*72
$GPGSV,3,3,11,24,37,271,44,28,64,195,45,31,62,032,51,,,,*48
$GPRMC,083256,A,2447.5455,N,12102.5084,E,041.1,295.8,271204,003.2,W*62
$GPGGA,083256,2447.5455,N,12102.5084,E,1,09,1.2,75.1,M,16.4,M,,*7F
$GPGSA,A,3,,04,07,08,11,,20,23,24,28,31,,2.1,1.2,1.4*31
$GPGSV,3,1,11,02,09,256,,04,44,281,45,07,57,351,48,08,03,187,36*71
$GPGSV,3,2,11,11,08,061,31,13,12,134,31,20,32,045,43,23,14,104,35*72
$GPGSV,3,3,11,24,37,271,44,28,64,195,46,31,62,032,51,,,,*4B
$GPRMC,083257,A,2447.5504,N,12102.4972,E,040.6,295.8,271204,003.2,W*61
$GPGGA,083257,2447.5504,N,12102.4972,E,1,09,1.2,75.1,M,16.4,M,,*7A
$GPGSA,A,3,,04,07,08,11,,20,23,24,28,31,,2.2,1.2,1.5*33
$GPGSV,3,1,11,02,09,256,,04,44,281,45,07,57,351,48,08,03,187,36*71
$GPGSV,3,2,11,11,08,061,31,13,12,134,31,20,32,045,43,23,14,104,35*72
$GPGSV,3,3,11,24,37,271,44,28,64,195,45,31,62,032,51,,,,*48
$GPRMC,083258,A,2447.5552,N,12102.4862,E,040.1,295.6,271204,003.2,W*64
$GPGGA,083258,2447.5552,N,12102.4862,E,1,09,1.3,74.9,M,16.4,M,,*7E
$GPGSA,A,3,,04,07,08,11,,20,23,24,28,31,,2.3,1.3,1.6*30
$GPGSV,3,1,11,02,09,256,,04,44,281,45,07,57,351,48,08,03,187,36*71
$GPGSV,3,2,11,11,08,061,31,13,12,134,31,20,32,045,43,23,14,104,35*72
$GPGSV,3,3,11,24,37,271,44,28,64,195,45,31,62,032,51,,,,*48
$GPRMC,083259,A,2447.5600,N,12102.4753,E,039.6,295.6,271204,003.2,W*65
$GPGGA,083259,2447.5600,N,12102.4753,E,1,09,1.3,74.8,M,16.4,M,,*77
$GPGSA,A,3,,04,07,08,11,,20,23,24,28,31,,2.2,1.3,1.6*31
$GPGSV,3,1,11,02,09,256,,04,44,281,45,07,57,351,48,08,03,187,35*72
$GPGSV,3,2,11,11,08,061,31,13,12,134,31,20,32,045,43,23,14,104,35*72
$GPGSV,3,3,11,24,37,271,45,28,64,195,45,31,62,032,51,,,,*49
$GPRMC,083300,A,2447.5647,N,12102.4644,E,039.5,295.4,271204,003.2,W*6D
$GPGGA,083300,2447.5647,N,12102.4644,E,1,09,1.3,74.6,M,16.4,M,,*70
$GPGSA,A,3,,04,07,08,11,,20,23,24,28,31,,2.2,1.3,1.7*30
$GPGSV,3,1,11,02,09,256,,04,44,281,45,07,57,351,48,08,03,187,35*72
$GPGSV,3,2,11,11,08,061,32,13,12,134,31,20,32,045,43,23,14,104,35*71
$GPGSV,3,3,11,24,37,271,45,28,64,195,45,31,62,032,51,,,,*49
$GPRMC,083301,A,2447.5695,N,12102.4535,E,039.5,295.6,271204,003.2,W*64
$GPGGA,083301,2447.5695,N,12102.4535,E,1,09,1.3,74.4,M,16.4,M,,*79
$GPGSA,A,3,,04,07,08,11,,20,23,24,28,31,,2.4,1.3,1.8*39
$GPGSV,3,1,11,02,09,256,,04,44,281,45,07,57,351,48,08,03,187,35*72
$GPGSV,3,2,11,11,08,061,31,13,13,133,31,20,32,045,43,23,14,104,35*74
$GPGSV,3,3,11,24,37,271,45,28,64,195,45,31,62,032,51,,,,*49
$GPRMC,083302,A,2447.5743,N,12102.4426,E,039.7,295.7,271204,003.2,W*6D
$GPGGA,083302,2447.5743,N,12102.4426,E,1,09,1.3,74.2,M,16.4,M,,*75
$GPGSA,A,3,,04,07,08,11,,20,23,24,28,31,,2.4,1.3,1.8*39
$GPGSV,3,1,11,02,09,256,,04,44,281,45,07,57,351,48,08,03,187,35*72
$GPGSV,3,2,11,11,08,061,32,13,13,133,31,20,32,045,43,23,14,104,36*74
$GPGSV,3,3,11,24,37,271,44,28,64,195,45,31,62,032,51,,,,*48
$GPRMC,083303,A,2447.5791,N,12102.4317,E,039.7,296.2,271204,003.2,W*60
$GPGGA,083303,2447.5791,N,12102.4317,E,1,09,1.3,74.0,M,16.4,M,,*7C
